[{"address":"퇴계로42길 2*","price":"76,500","contract_date":"202410-202410-10","area":81.3,"land_use":"제2종일반주거","building_use":"제2종근린생활","latitude":37.5615712317,"longitude":126.9969947201},{"address":"장한로 371-1","price":"7,000","contract_date":"202410-202410-10","area":19.59,"land_use":"제3종일반주거","building_use":"제2종근린생활","latitude":37.5786529979,"longitude":127.0725126142},{"address":"을지로 105","price":"12,000","contract_date":"202410-202410-08","area":23.23,"land_use":"일반상업","building_use":"숙박","latitude":37.5664588824,"longitude":126.9895534747},{"address":"왕산로 104-3","price":"147,000","contract_date":"202410-202410-10","area":42.3,"land_use":"일반상업","building_use":"제2종근린생활","latitude":37.5779329726,"longitude":127.035076626},{"address":"효창원로98길 3-86","price":"33,000","contract_date":"202410-202410-09","area":20.1,"land_use":"제1종일반주거","building_use":"제2종근린생활","latitude":37.549774257,"longitude":126.9638413373},{"address":"왕산로 788","price":"2,700","contract_date":"202410-202410-07","area":6.65,"land_use":"일반상업","building_use":"기타","latitude":37.5590889695,"longitude":128.802439784},{"address":"시흥대로 984","price":"8,000","contract_date":"202410-202410-08","area":32.26,"land_use":"준공업","building_use":"제1종근린생활","latitude":37.4240564086,"longitude":126.7910248652},{"address":"갈현로17가길 27-61","price":"14,900","contract_date":"202410-202410-07","area":49.85,"land_use":"제2종일반주거","building_use":"제2종근린생활","latitude":37.6130589327,"longitude":126.9109598667},{"address":"논현로106길 6**","price":"505,000","contract_date":"202410-202410-07","area":263.34,"land_use":"제2종일반주거","building_use":"제2종근린생활","latitude":37.5061316514,"longitude":127.0350947126},{"address":"강남대로 814-6","price":"45,000","contract_date":"202410-202410-09","area":9.82,"land_use":"제3종일반주거","building_use":"제2종근린생활","latitude":37.5180817961,"longitude":127.0184980478},{"address":"신촌로 12-33","price":"12,500","contract_date":"202410-202410-08","area":32.64,"land_use":"일반상업","building_use":"업무","latitude":37.4601266727,"longitude":127.1059865667},{"address":"강남대로110길 8**","price":"1,270,000","contract_date":"202410-202410-08","area":155.74,"land_use":"제3종일반주거","building_use":"제2종근린생활","latitude":37.5040407903,"longitude":127.0254504777},{"address":"월드컵북로36길 3*","price":"240,000","contract_date":"202410-202410-07","area":579.63,"land_use":"제2종일반주거","building_use":"제1종근린생활","latitude":37.5701161393,"longitude":126.9047267176},{"address":"경인로 4**","price":"396,600","contract_date":"202410-202410-05","area":81.99,"land_use":"일반상업","building_use":"제1종근린생활","latitude":37.4827158118,"longitude":126.7555963493},{"address":"서오릉로13길 220-6","price":"17,000","contract_date":"202410-202410-07","area":44.59,"land_use":"제2종일반주거","building_use":"제2종근린생활","latitude":37.6105450524,"longitude":126.9125239581},{"address":"언주로141길 7*","price":"1,201,000","contract_date":"202410-202410-04","area":278.94,"land_use":"제1종일반주거","building_use":"제2종근린생활","latitude":37.5188441102,"longitude":127.034219288},{"address":"범안로12가길 1006-62","price":"25,500","contract_date":"202410-202410-05","area":47.41,"land_use":"준공업","building_use":"제2종근린생활","latitude":37.4649072783,"longitude":126.8948045957},{"address":"통일로 248","price":"10,500","contract_date":"202410-202410-04","area":14.4,"land_use":"제3종일반주거","building_use":"제1종근린생활","latitude":37.5745897738,"longitude":126.9581101541},{"address":"마장로1길 2**","price":"51,500","contract_date":"202410-202410-04","area":90.9,"land_use":"일반상업","building_use":"제1종근린생활","latitude":35.4328369407,"longitude":128.3134538559},{"address":"목동서로 923","price":"11,000","contract_date":"202410-202410-07","area":19.47,"land_use":"일반상업","building_use":"제2종근린생활","latitude":37.5152035207,"longitude":126.8591164486},{"address":"올림픽로 09월 19일","price":"128,700","contract_date":"202410-202410-04","area":18.85,"land_use":"제3종일반주거","building_use":"제2종근린생활","latitude":37.6780855745,"longitude":128.6997844001},{"address":"응암로 599-15","price":"13,000","contract_date":"202410-202410-04","area":35.37,"land_use":"근린상업","building_use":"제2종근린생활","latitude":37.6050418703,"longitude":126.9225451044},{"address":"을지로 207-2","price":"27,000","contract_date":"202410-202410-04","area":12.37,"land_use":"일반상업","building_use":"판매","latitude":37.5670581899,"longitude":127.0011445032},{"address":"마곡중앙6로 771-3","price":"22,500","contract_date":"202410-202410-05","area":38.7,"land_use":"준공업","building_use":"업무","latitude":37.5601772728,"longitude":126.8376959661},{"address":"포은로 4**","price":"690,500","contract_date":"202410-202410-04","area":897.6,"land_use":"제2종일반주거","building_use":"제2종근린생활","latitude":35.9785817264,"longitude":128.9625688587},{"address":"화곡로68길 639-8","price":"55,000","contract_date":"202410-202410-03","area":38.51,"land_use":"준공업","building_use":"제2종근린생활","latitude":37.5561254443,"longitude":126.8618258895},{"address":"영신로34길 7*","price":"8,314,581","contract_date":"202410-202410-02","area":13786.25,"land_use":"준주거","building_use":"업무","latitude":37.5200615162,"longitude":126.9018161757},{"address":"관악로 1703","price":"8,000","contract_date":"202410-202410-02","area":24.36,"land_use":"제3종일반주거","building_use":"제1종근린생활","latitude":37.4910596639,"longitude":126.9567387663},{"address":"퇴계로 Sep-65","price":"2,920","contract_date":"202410-202410-02","area":3.83,"land_use":"중심상업","building_use":"판매","latitude":36.7396880308,"longitude":128.8334250764},{"address":"효령로 1038","price":"5,500","contract_date":"202410-202410-02","area":6.33,"land_use":"제3종일반주거","building_use":"제1종근린생활","latitude":37.4891064048,"longitude":127.031204349},{"address":"장충단로 18-21","price":"1,000","contract_date":"202410-202410-02","area":3.55,"land_use":"일반상업","building_use":"판매","latitude":37.552632091,"longitude":126.9995432437},{"address":"화랑로11길 227","price":"10,800","contract_date":"202410-202410-03","area":23.77,"land_use":"준주거","building_use":"제2종근린생활","latitude":37.6039528264,"longitude":127.0422254175},{"address":"경인로53길 1258","price":"30,000","contract_date":"202410-202410-02","area":20.88,"land_use":"준공업","building_use":"판매","latitude":37.5067829027,"longitude":126.8750338558},{"address":"구로중앙로28길 110-5","price":"23,800","contract_date":"202410-202410-02","area":68.5,"land_use":"일반상업","building_use":"업무","latitude":37.5008965448,"longitude":126.8892205116},{"address":"장한로 366-7","price":"27,800","contract_date":"202410-202410-02","area":34.76,"land_use":"일반상업","building_use":"제2종근린생활","latitude":37.5786529979,"longitude":127.0725126142},{"address":"율곡로 1**","price":"155,000","contract_date":"202410-202410-02","area":46.28,"land_use":"제1종일반주거","building_use":"제1종근린생활","latitude":37.5762336518,"longitude":126.9798526831},{"address":"남대문시장8길 5","price":"200","contract_date":"202410-202410-02","area":19620.43,"land_use":"일반상업","building_use":"판매","latitude":37.5602133117,"longitude":126.9784976356},{"address":"효령로 1445-3","price":"5,000","contract_date":"202410-202410-01","area":11.49,"land_use":"일반상업","building_use":"판매","latitude":37.4891064048,"longitude":127.031204349},{"address":"이화여대1길 145","price":"1,000","contract_date":"202410-202410-02","area":3.8,"land_use":"일반상업","building_use":"판매","latitude":37.5572958798,"longitude":126.9431737528},{"address":"아차산로 145-8","price":"37,000","contract_date":"202410-202410-01","area":22.51,"land_use":"제2종일반주거","building_use":"제2종근린생활","latitude":37.5431189987,"longitude":127.0596096471},{"address":"도봉로 Apr-35","price":"9,900","contract_date":"202410-202410-01","area":3.9,"land_use":"일반상업","building_use":"업무","latitude":37.6234790707,"longitude":127.0278578138},{"address":"영중로 09월 13일","price":"2,000","contract_date":"202410-202410-01","area":4.96,"land_use":"일반상업","building_use":"제2종근린생활","latitude":37.517176671,"longitude":126.9055825141},{"address":"왕산로 1140-5","price":"500","contract_date":"202410-202410-02","area":4.01,"land_use":"일반상업","building_use":"판매","latitude":37.5822650861,"longitude":128.7941078292},{"address":"충민로 634","price":"26,200","contract_date":"202410-202410-02","area":22.68,"land_use":"유통상업","building_use":"판매","latitude":36.8364265653,"longitude":127.8634868893},{"address":"연희로35길 164-3","price":"21,000","contract_date":"202410-202410-01","area":63.97,"land_use":"준주거","building_use":"제2종근린생활","latitude":37.5781732054,"longitude":126.9341380233},{"address":"개봉로11길 345-13","price":"19,500","contract_date":"202410-202410-01","area":36.78,"land_use":"제2종일반주거","building_use":"제1종근린생활","latitude":37.4883829681,"longitude":126.8496297181},{"address":"시흥대로39길 985","price":"60,000","contract_date":"202410-202410-02","area":282.98,"land_use":"준공업","building_use":"제2종근린생활","latitude":37.4473786878,"longitude":126.9008827748},{"address":"양천로 717","price":"11,763","contract_date":"202409-202409-30","area":27.47,"land_use":"준공업","building_use":"판매","latitude":37.5497272457,"longitude":126.8757605906},{"address":"국회대로72길 05월 14일","price":"23,000","contract_date":"202410-202410-01","area":37.34,"land_use":"일반상업","building_use":"업무","latitude":37.5305106847,"longitude":126.9203069265},{"address":"화랑로48길 10","price":"37,000","contract_date":"202410-202410-01","area":89.88,"land_use":"제3종일반주거","building_use":"기타","latitude":37.6137912305,"longitude":127.0671914804},{"address":"노해로 292-1","price":"1,500","contract_date":"202409-202409-30","area":3.9,"land_use":"준주거","building_use":"판매","latitude":37.6535803779,"longitude":127.0554459337},{"address":"마포대로 173","price":"15,000","contract_date":"202410-202410-01","area":27.14,"land_use":"일반상업","building_use":"제1종근린생활","latitude":37.5498629199,"longitude":126.9544337447},{"address":"도산대로61길 9*","price":"1,520,000","contract_date":"202410-202410-02","area":316.9,"land_use":"제2종일반주거","building_use":"제1종근린생활","latitude":37.5245687275,"longitude":127.0430078687},{"address":"충무로 Jan-43","price":"28,250","contract_date":"202409-202409-30","area":16.44,"land_use":"일반상업","building_use":"숙박","latitude":36.3207488621,"longitude":127.4374438274},{"address":"가산디지털2로 452-1","price":"34,436","contract_date":"202410-202410-04","area":41.85,"land_use":"준공업","building_use":"업무","latitude":37.4842973367,"longitude":126.876076944},{"address":"노해로 292-1","price":"1,980","contract_date":"202409-202409-30","area":4.17,"land_use":"준주거","building_use":"판매","latitude":37.6535803779,"longitude":127.0554459337},{"address":"양천로 717","price":"15,058","contract_date":"202409-202409-30","area":35.25,"land_use":"준공업","building_use":"판매","latitude":37.5497272457,"longitude":126.8757605906},{"address":"통일로 1**","price":"1,248,862","contract_date":"202409-202409-30","area":337.12,"land_use":"제3종일반주거","building_use":"제1종근린생활","latitude":37.7286926641,"longitude":126.8390992239},{"address":"올림픽로 07월 28일","price":"38,948","contract_date":"202409-202409-30","area":39.65,"land_use":"일반상업","building_use":"업무","latitude":37.5290123506,"longitude":127.1204394839},{"address":"노해로 292-1","price":"1,980","contract_date":"202409-202409-30","area":6.1,"land_use":"준주거","building_use":"판매","latitude":37.6535803779,"longitude":127.0554459337},{"address":"목동서로 907-10","price":"28,000","contract_date":"202410-202410-01","area":37.78,"land_use":"일반상업","building_use":"교육연구","latitude":37.5152035207,"longitude":126.8591164486},{"address":"양천로 717","price":"12,118","contract_date":"202409-202409-30","area":31.98,"land_use":"준공업","building_use":"판매","latitude":37.5497272457,"longitude":126.8757605906},{"address":"도봉로 731-19","price":"78,800","contract_date":"202409-202409-30","area":33.56,"land_use":"준주거","building_use":"제2종근린생활","latitude":37.6694477301,"longitude":127.0438742764},{"address":"올림픽로 07월 28일","price":"93,689","contract_date":"202409-202409-30","area":95.35,"land_use":"일반상업","building_use":"업무","latitude":37.5290123506,"longitude":127.1204394839},{"address":"마곡서로 759-1","price":"23,000","contract_date":"202409-202409-30","area":35.65,"land_use":"일반상업","building_use":"업무","latitude":37.5725062972,"longitude":126.8231952183},{"address":"노해로 292-1","price":"1,500","contract_date":"202409-202409-30","area":3.9,"land_use":"준주거","building_use":"판매","latitude":37.6535803779,"longitude":127.0554459337},{"address":"신반포로 1141","price":"9,900","contract_date":"202409-202409-30","area":6.61,"land_use":"제3종일반주거","building_use":"판매","latitude":37.5107074544,"longitude":127.0207998571},{"address":"남부순환로246길 1***","price":"6,300","contract_date":"202410-202410-02","area":558.0,"land_use":"제2종일반주거","building_use":"제2종근린생활","latitude":37.4761533511,"longitude":126.9646854937},{"address":"양천로 717","price":"17,984","contract_date":"202409-202409-30","area":45.27,"land_use":"준공업","building_use":"판매","latitude":37.5497272457,"longitude":126.8757605906},{"address":"노해로 292-1","price":"1,500","contract_date":"202409-202409-30","area":3.9,"land_use":"준주거","building_use":"판매","latitude":37.6535803779,"longitude":127.0554459337},{"address":"올림픽로 07월 28일","price":"40,421","contract_date":"202409-202409-30","area":41.14,"land_use":"일반상업","building_use":"제1종근린생활","latitude":37.5290123506,"longitude":127.1204394839},{"address":"가산디지털1로 691","price":"23,500","contract_date":"202409-202409-30","area":44.55,"land_use":"준공업","building_use":"업무","latitude":37.4857766266,"longitude":126.8782844955},{"address":"서리풀4길 1617-2","price":"50,500","contract_date":"202409-202409-30","area":56.04,"land_use":"제2종일반주거","building_use":"제2종근린생활","latitude":37.4879661532,"longitude":127.0230600438},{"address":"양천로 717","price":"10,027","contract_date":"202409-202409-30","area":26.57,"land_use":"준공업","building_use":"판매","latitude":37.5497272457,"longitude":126.8757605906},{"address":"노해로 292-1","price":"2,050","contract_date":"202409-202409-30","area":5.32,"land_use":"준주거","building_use":"판매","latitude":37.6535803779,"longitude":127.0554459337},{"address":"올림픽로 07월 28일","price":"33,261","contract_date":"202409-202409-30","area":33.9,"land_use":"일반상업","building_use":"제1종근린생활","latitude":37.5290123506,"longitude":127.1204394839},{"address":"양천로 717","price":"13,925","contract_date":"202409-202409-30","area":36.07,"land_use":"준공업","building_use":"판매","latitude":37.5497272457,"longitude":126.8757605906},{"address":"성대로6길 256-9","price":"19,000","contract_date":"202409-202409-30","area":26.35,"land_use":"제2종일반주거","building_use":"제2종근린생활","latitude":37.4987308809,"longitude":126.9315454604},{"address":"도봉로 731-19","price":"128,800","contract_date":"202409-202409-30","area":58.5,"land_use":"준주거","building_use":"제2종근린생활","latitude":37.6694477301,"longitude":127.0438742764},{"address":"올림픽로 07월 28일","price":"38,948","contract_date":"202409-202409-30","area":39.65,"land_use":"일반상업","building_use":"업무","latitude":37.5290123506,"longitude":127.1204394839},{"address":"양천로 717","price":"3,759","contract_date":"202409-202409-30","area":6.6,"land_use":"준공업","building_use":"판매","latitude":37.5497272457,"longitude":126.8757605906},{"address":"청파로71다길 1-45","price":"29,800","contract_date":"202409-202409-30","area":29.28,"land_use":"제1종일반주거","building_use":"제1종근린생활","latitude":37.5491770614,"longitude":126.9660909096},{"address":"마곡서로 759-1","price":"23,000","contract_date":"202409-202409-30","area":35.65,"land_use":"일반상업","building_use":"업무","latitude":37.5725062972,"longitude":126.8231952183},{"address":"올림픽로 07월 28일","price":"19,246","contract_date":"202409-202409-30","area":23.09,"land_use":"일반상업","building_use":"제1종근린생활","latitude":37.5290123506,"longitude":127.1204394839},{"address":"후암로4길 254-6","price":"18,000","contract_date":"202409-202409-30","area":25.36,"land_use":"제2종일반주거","building_use":"제1종근린생활","latitude":37.5488606843,"longitude":126.9812143888},{"address":"양천로 717","price":"10,097","contract_date":"202409-202409-30","area":18.45,"land_use":"준공업","building_use":"판매","latitude":37.5497272457,"longitude":126.8757605906},{"address":"천중로32길 210-14","price":"24,000","contract_date":"202409-202409-28","area":23.45,"land_use":"제2종일반주거","building_use":"제1종근린생활","latitude":37.5422960882,"longitude":127.1335881925},{"address":"올림픽로 07월 28일","price":"15,488","contract_date":"202409-202409-30","area":18.61,"land_use":"일반상업","building_use":"제1종근린생활","latitude":37.5290123506,"longitude":127.1204394839},{"address":"국회대로72길 05월 14일","price":"22,800","contract_date":"202409-202409-28","area":37.34,"land_use":"일반상업","building_use":"업무","latitude":37.5305106847,"longitude":126.9203069265},{"address":"양천로 717","price":"17,032","contract_date":"202409-202409-30","area":38.75,"land_use":"준공업","building_use":"판매","latitude":37.5497272457,"longitude":126.8757605906},{"address":"여의대방로65길 44-32","price":"53,870","contract_date":"202409-202409-30","area":45.37,"land_use":"일반상업","building_use":"제2종근린생활","latitude":37.520494558,"longitude":126.9287628202},{"address":"도봉로 6**","price":"350,000","contract_date":"202409-202409-27","area":584.43,"land_use":"제2종일반주거","building_use":"제2종근린생활","latitude":36.1399918001,"longitude":128.313234096},{"address":"양천로 717","price":"12,118","contract_date":"202409-202409-30","area":31.98,"land_use":"준공업","building_use":"판매","latitude":37.5497272457,"longitude":126.8757605906},{"address":"한강대로 422","price":"360,000","contract_date":"202409-202409-27","area":170.1,"land_use":"일반상업","building_use":"판매","latitude":37.5548375731,"longitude":126.9717325027},{"address":"서초대로74길 1***","price":"110,420,000","contract_date":"202409-202409-27","area":81117.28,"land_use":"일반상업","building_use":"판매","latitude":37.4972272922,"longitude":127.0261990215},{"address":"아차산로 145-8","price":"32,000","contract_date":"202409-202409-28","area":16.99,"land_use":"제2종일반주거","building_use":"제2종근린생활","latitude":37.5431189987,"longitude":127.0596096471},{"address":"백제고분로34길 214-14","price":"90,000","contract_date":"202409-202409-30","area":24.96,"land_use":"제2종일반주거","building_use":"제1종근린생활","latitude":37.4986530324,"longitude":127.0986595122},{"address":"양천로 717","price":"11,763","contract_date":"202409-202409-30","area":27.47,"land_use":"준공업","building_use":"판매","latitude":37.5497272457,"longitude":126.8757605906},{"address":"구천면로46길 2**","price":"205,000","contract_date":"202409-202409-28","area":480.95,"land_use":"제2종일반주거","building_use":"기타","latitude":37.5473876913,"longitude":127.1351439632},{"address":"개포로82길 186-7","price":"95,000","contract_date":"202409-202409-27","area":124.12,"land_use":"일반상업","building_use":"업무","latitude":37.4886632766,"longitude":127.0677564079},{"address":"오목로 961","price":"220,000","contract_date":"202409-202409-28","area":237.53,"land_use":"일반상업","building_use":"교육연구","latitude":37.7490064304,"longitude":127.101136756},{"address":"신흥로5길 Mar-35","price":"30,000","contract_date":"202409-202409-26","area":21.59,"land_use":"제1종일반주거","building_use":"제2종근린생활","latitude":37.5421372922,"longitude":126.9857228876},{"address":"목동서로 907-7","price":"105,000","contract_date":"202409-202409-27","area":31.96,"land_use":"일반상업","building_use":"제1종근린생활","latitude":37.5152035207,"longitude":126.8591164486},{"address":"여의대방로65길 44-32","price":"98,630","contract_date":"202409-202409-30","area":83.07,"land_use":"일반상업","building_use":"제2종근린생활","latitude":37.520494558,"longitude":126.9287628202},{"address":"양천로49길 194-2","price":"10,000","contract_date":"202409-202409-27","area":172.14,"land_use":"준공업","building_use":"제2종근린생활","latitude":37.5726678326,"longitude":126.8383648224},{"address":"성내천로47길 5**","price":"490,000","contract_date":"202409-202409-30","area":1101.91,"land_use":"제2종일반주거","building_use":"기타","latitude":37.4946083852,"longitude":127.1559447926},{"address":"이촌로14길 2**","price":"250,000","contract_date":"202409-202409-28","area":145.2,"land_use":"제2종일반주거","building_use":"제2종근린생활","latitude":37.5270646369,"longitude":126.9549291972},{"address":"고덕로 3**","price":"490,000","contract_date":"202409-202409-30","area":680.12,"land_use":"제3종일반주거","building_use":"제2종근린생활","latitude":37.0180338479,"longitude":127.021430054},{"address":"선릉로 08월 02일","price":"158,000","contract_date":"202409-202409-27","area":54.36,"land_use":"일반상업","building_use":"판매","latitude":37.4813279513,"longitude":127.0626441829},{"address":"양천로 717","price":"4,120","contract_date":"202409-202409-30","area":7.18,"land_use":"준공업","building_use":"판매","latitude":37.5497272457,"longitude":126.8757605906},{"address":"신촌로 1**","price":"227,000","contract_date":"202409-202409-30","area":439.56,"land_use":"준주거","building_use":"제1종근린생활","latitude":36.7937744855,"longitude":126.7871379767},{"address":"영등포로 01월 16일","price":"20,000","contract_date":"202409-202409-26","area":32.37,"land_use":"준공업","building_use":"제2종근린생활","latitude":37.5225142498,"longitude":126.8813752199},{"address":"진흥로1길 10월 30일","price":"11,000","contract_date":"202409-202409-27","area":29.18,"land_use":"제2종일반주거","building_use":"제2종근린생활","latitude":37.6012562428,"longitude":126.9188784427},{"address":"통일로82가길 484-56","price":"20,500","contract_date":"202409-202409-27","area":42.6,"land_use":"일반상업","building_use":"기타","latitude":37.6224936031,"longitude":126.9227299973},{"address":"삼성로100길 1**","price":"550,000","contract_date":"202409-202409-27","area":137.22,"land_use":"제2종일반주거","building_use":"제2종근린생활","latitude":37.5094914472,"longitude":127.0560667402},{"address":"새말로5길 6*","price":"1,220,000","contract_date":"202409-202409-27","area":1084.72,"land_use":"제3종일반주거","building_use":"제2종근린생활","latitude":37.4832815446,"longitude":127.1247591925},{"address":"솔샘로 8**","price":"180,200","contract_date":"202409-202409-26","area":282.42,"land_use":"제2종일반주거","building_use":"제1종근린생활","latitude":37.6082479909,"longitude":127.004657841},{"address":"양천로 717","price":"36,032","contract_date":"202409-202409-30","area":78.89,"land_use":"준공업","building_use":"판매","latitude":37.5497272457,"longitude":126.8757605906},{"address":"여의대방로67길 Dec-44","price":"21,500","contract_date":"202409-202409-26","area":32.56,"land_use":"일반상업","building_use":"업무","latitude":37.5200306388,"longitude":126.9303415036},{"address":"효령로 1445-3","price":"4,500","contract_date":"202409-202409-28","area":11.47,"land_use":"일반상업","building_use":"판매","latitude":37.4891064048,"longitude":127.031204349},{"address":"고덕로 3**","price":"490,000","contract_date":"202409-202409-30","area":680.12,"land_use":"제3종일반주거","building_use":"제2종근린생활","latitude":37.0180338479,"longitude":127.021430054},{"address":"경인로 Aug-92","price":"1,500","contract_date":"202409-202409-27","area":16.53,"land_use":"준공업","building_use":"제2종근린생활","latitude":37.4831985507,"longitude":126.7609343475},{"address":"광평로 724","price":"23,700","contract_date":"202409-202409-26","area":39.55,"land_use":"일반상업","building_use":"업무","latitude":33.3336596042,"longitude":126.3744576803},{"address":"한강대로 422","price":"420,000","contract_date":"202409-202409-27","area":192.57,"land_use":"일반상업","building_use":"판매","latitude":37.5548375731,"longitude":126.9717325027},{"address":"양천로 717","price":"10,083","contract_date":"202409-202409-30","area":26.47,"land_use":"준공업","building_use":"판매","latitude":37.5497272457,"longitude":126.8757605906},{"address":"강남대로112길 1**","price":"1,670,000","contract_date":"202409-202409-26","area":1469.75,"land_use":"제2종일반주거","building_use":"제2종근린생활","latitude":37.5055183978,"longitude":127.0252331342},{"address":"강서로18길 156-22","price":"25,000","contract_date":"202409-202409-27","area":48.45,"land_use":"제2종일반주거","building_use":"제2종근린생활","latitude":37.5351021981,"longitude":126.8536259926},{"address":"대흥로30길 *","price":"149,000","contract_date":"202409-202409-25","area":145.75,"land_use":"준주거","building_use":"제1종근린생활","latitude":37.5562351949,"longitude":126.9473859896},{"address":"고덕로 693","price":"90,000","contract_date":"202409-202409-25","area":20.75,"land_use":"제2종일반주거","building_use":"제2종근린생활","latitude":37.8042305491,"longitude":127.081695151},{"address":"천호대로 228-1","price":"2,500","contract_date":"202409-202409-28","area":8.61,"land_use":"준주거","building_use":"제1종근린생활","latitude":37.570540053,"longitude":127.0480886308},{"address":"영등포로 01월 16일","price":"20,000","contract_date":"202409-202409-26","area":32.37,"land_use":"준공업","building_use":"제2종근린생활","latitude":37.5225142498,"longitude":126.8813752199},{"address":"큰우물로 174-18","price":"32,500","contract_date":"202409-202409-26","area":31.85,"land_use":"제3종일반주거","building_use":"제1종근린생활","latitude":37.5409109706,"longitude":126.9459207793},{"address":"논현로164길 6**","price":"1,050,000","contract_date":"202409-202409-27","area":430.99,"land_use":"제2종일반주거","building_use":"제1종근린생활","latitude":37.5236105988,"longitude":127.0288581758},{"address":"장충단로 18-35","price":"1,200","contract_date":"202409-202409-26","area":5.99,"land_use":"일반상업","building_use":"판매","latitude":37.552632091,"longitude":126.9995432437},{"address":"양천로 717","price":"17,032","contract_date":"202409-202409-30","area":38.75,"land_use":"준공업","building_use":"판매","latitude":37.5497272457,"longitude":126.8757605906},{"address":"동일로143길 3**","price":"550,000","contract_date":"202409-202409-27","area":492.95,"land_use":"제2종일반주거","building_use":"제2종근린생활","latitude":37.6051817093,"longitude":127.07818845},{"address":"청파로 14-18","price":"18,700","contract_date":"202409-202409-25","area":36.95,"land_use":"제3종일반주거","building_use":"업무","latitude":37.7110656675,"longitude":128.8736193175},{"address":"경인로55길 607-1","price":"8,000","contract_date":"202409-202409-26","area":27.0,"land_use":"준공업","building_use":"업무","latitude":37.5040359436,"longitude":126.8766352546},{"address":"올림픽로35길 7","price":"45,500","contract_date":"202409-202409-28","area":14.94,"land_use":"제1종일반주거","building_use":"제2종근린생활","latitude":37.5203137038,"longitude":127.1132651906},{"address":"광나루로56길 546-4","price":"101,000","contract_date":"202409-202409-24","area":178.61,"land_use":"준주거","building_use":"업무","latitude":37.5367969303,"longitude":127.0950622622},{"address":"연희로15길 1**","price":"80,000","contract_date":"202409-202409-26","area":243.63,"land_use":"제1종전용주거","building_use":"기타","latitude":37.5678428195,"longitude":126.9311442646},{"address":"바우뫼로41길 6-37","price":"18,000","contract_date":"202409-202409-25","area":26.79,"land_use":"제2종일반주거","building_use":"제2종근린생활","latitude":37.4810597148,"longitude":127.0414830514},{"address":"영등포로 01월 16일","price":"23,000","contract_date":"202409-202409-26","area":36.93,"land_use":"준공업","building_use":"제2종근린생활","latitude":37.5225142498,"longitude":126.8813752199},{"address":"청파로47나길 02월 20일","price":"20,000","contract_date":"202409-202409-25","area":30.24,"land_use":"제2종일반주거","building_use":"제1종근린생활","latitude":37.5450576906,"longitude":126.9670527976},{"address":"양천로 717","price":"17,089","contract_date":"202409-202409-30","area":38.45,"land_use":"준공업","building_use":"판매","latitude":37.5497272457,"longitude":126.8757605906},{"address":"영신로30길 1**","price":"100,000","contract_date":"202409-202409-26","area":97.38,"land_use":"준주거","building_use":"제1종근린생활","latitude":37.5189827397,"longitude":126.9014729309},{"address":"사평대로 746-5","price":"67,000","contract_date":"202409-202409-27","area":129.25,"land_use":"제3종일반주거","building_use":"제2종근린생활","latitude":37.5042040699,"longitude":127.0241238303},{"address":"아차산로 577","price":"30,000","contract_date":"202409-202409-27","area":39.6,"land_use":"제1종일반주거","building_use":"제2종근린생활","latitude":37.5452081695,"longitude":127.1039557555},{"address":"포은로 4**","price":"482,000","contract_date":"202409-202409-24","area":459.45,"land_use":"제2종일반주거","building_use":"제2종근린생활","latitude":35.9785817264,"longitude":128.9625688587},{"address":"청파로73길 33-21","price":"38,000","contract_date":"202409-202409-25","area":35.26,"land_use":"제2종일반주거","building_use":"제2종근린생활","latitude":37.5505682751,"longitude":126.9681770041},{"address":"삼일대로30길 34","price":"11,000","contract_date":"202409-202409-24","area":17.2,"land_use":"일반상업","building_use":"업무","latitude":37.5741993091,"longitude":126.9894939588},{"address":"도봉로71가길 50-19","price":"25,300","contract_date":"202409-202409-25","area":61.69,"land_use":"일반상업","building_use":"제1종근린생활","latitude":37.6334799517,"longitude":127.0221033969},{"address":"전농로2나길 4**","price":"22,000","contract_date":"202409-202409-25","area":21.85,"land_use":"제2종일반주거","building_use":"제1종근린생활","latitude":37.5669667268,"longitude":127.0572727262},{"address":"양화로 166-14","price":"1,690","contract_date":"202409-202409-23","area":4.35,"land_use":"근린상업","building_use":"판매","latitude":37.2378173515,"longitude":127.5581774272},{"address":"양재대로124길 339-1","price":"7,000","contract_date":"202409-202409-24","area":14.29,"land_use":"제2종일반주거","building_use":"판매","latitude":37.5419780896,"longitude":127.1470745199},{"address":"다산로36가길 6*","price":"19,198","contract_date":"202409-202409-25","area":757.75,"land_use":"제2종일반주거","building_use":"제1종근린생활","latitude":37.5610606298,"longitude":127.0189722968},{"address":"숙선옹주로 396","price":"32,000","contract_date":"202409-202409-24","area":32.0,"land_use":"제2종일반주거","building_use":"제2종근린생활","latitude":37.6183916234,"longitude":127.0871938329},{"address":"아차산로 07월 03일","price":"18,500","contract_date":"202409-202409-27","area":30.3,"land_use":"일반상업","building_use":"업무","latitude":37.5481160319,"longitude":127.0456227092},{"address":"와우산로15길 4**","price":"367,000","contract_date":"202409-202409-27","area":167.72,"land_use":"제2종일반주거","building_use":"제2종근린생활","latitude":37.5499499424,"longitude":126.9224881175},{"address":"효령로 1445-3","price":"5,800","contract_date":"202409-202409-24","area":11.55,"land_use":"일반상업","building_use":"판매","latitude":37.4891064048,"longitude":127.031204349},{"address":"충민로 634","price":"10,000","contract_date":"202409-202409-27","area":23.4,"land_use":"유통상업","building_use":"판매","latitude":36.8364265653,"longitude":127.8634868893},{"address":"영등포로 459","price":"37,460","contract_date":"202409-202409-26","area":31.22,"land_use":"준공업","building_use":"제2종근린생활","latitude":37.5128799666,"longitude":126.9251892806},{"address":"방학로15길 531","price":"18,700","contract_date":"202409-202409-23","area":292.08,"land_use":"제2종일반주거","building_use":"제1종근린생활","latitude":37.6590757262,"longitude":127.023761167},{"address":"퇴계로 110-7","price":"100,000","contract_date":"202409-202409-23","area":107.11,"land_use":"일반상업","building_use":"기타","latitude":37.5603805433,"longitude":126.9840663315},{"address":"율곡로2길 85","price":"41,000","contract_date":"202409-202409-24","area":43.07,"land_use":"일반상업","building_use":"숙박","latitude":37.5743654556,"longitude":126.9805106844},{"address":"개포로82길 186-8","price":"30,000","contract_date":"202409-202409-22","area":190.8,"land_use":"일반상업","building_use":"제1종근린생활","latitude":37.4886632766,"longitude":127.0677564079},{"address":"칠패로 151","price":"18,500","contract_date":"202409-202409-23","area":32.06,"land_use":"일반상업","building_use":"숙박","latitude":37.5595662547,"longitude":126.9740251188},{"address":"도산대로37길 6**","price":"560,000","contract_date":"202409-202409-27","area":306.8,"land_use":"제2종일반주거","building_use":"제2종근린생활","latitude":37.5214207031,"longitude":127.0317219071},{"address":"행당로9길 347","price":"5,300","contract_date":"202409-202409-24","area":8.33,"land_use":"제3종일반주거","building_use":"제1종근린생활","latitude":37.560175056,"longitude":127.0285102711},{"address":"창경궁로5다길 1**","price":"206,600","contract_date":"202409-202409-27","area":64.03,"land_use":"일반상업","building_use":"제2종근린생활","latitude":37.5671225183,"longitude":126.9964128868},{"address":"효령로 1445-3","price":"5,000","contract_date":"202409-202409-25","area":11.97,"land_use":"일반상업","building_use":"판매","latitude":37.4891064048,"longitude":127.031204349},{"address":"석촌호수로 Feb-35","price":"160,000","contract_date":"202409-202409-26","area":121.1,"land_use":"제3종일반주거","building_use":"교육연구","latitude":37.5070880169,"longitude":127.0936717839},{"address":"경인로55길 607-1","price":"8,000","contract_date":"202409-202409-26","area":27.0,"land_use":"준공업","building_use":"업무","latitude":37.5040359436,"longitude":126.8766352546},{"address":"퇴계로 01월 24일","price":"38,200","contract_date":"202409-202409-23","area":25.13,"land_use":"중심상업","building_use":"숙박","latitude":36.5636412484,"longitude":128.7258762089},{"address":"영등포로 01월 16일","price":"20,000","contract_date":"202409-202409-26","area":32.37,"land_use":"준공업","building_use":"제2종근린생활","latitude":37.5225142498,"longitude":126.8813752199},{"address":"강남대로 837-11","price":"5,000","contract_date":"202409-202409-24","area":42.33,"land_use":"일반상업","building_use":"제1종근린생활","latitude":37.5180817961,"longitude":127.0184980478},{"address":"한가람로16길 506","price":"3,900","contract_date":"202409-202409-23","area":16.1,"land_use":"제3종일반주거","building_use":"제1종근린생활","latitude":37.5368622906,"longitude":127.1159296847},{"address":"강남대로154길 5**","price":"1,150,000","contract_date":"202409-202409-24","area":206.97,"land_use":"제2종일반주거","building_use":"제2종근린생활","latitude":37.5175358783,"longitude":127.0201595206},{"address":"영등포로 Feb-30","price":"17,000","contract_date":"202409-202409-20","area":30.4,"land_use":"준공업","building_use":"제2종근린생활","latitude":37.5136356983,"longitude":126.9199290625},{"address":"월드컵북로47길 1641","price":"55,000","contract_date":"202409-202409-23","area":84.78,"land_use":"제3종일반주거","building_use":"기타","latitude":37.5751922494,"longitude":126.891548098},{"address":"방학로 4**","price":"66,500","contract_date":"202409-202409-26","area":65.96,"land_use":"제3종일반주거","building_use":"제1종근린생활","latitude":37.6616286147,"longitude":127.0503635847},{"address":"마장로1길 213-8","price":"2,000","contract_date":"202409-202409-23","area":4.33,"land_use":"일반상업","building_use":"판매","latitude":35.43223037,"longitude":128.3135939974},{"address":"을지로45길 200-5","price":"1,000","contract_date":"202409-202409-27","area":5.04,"land_use":"일반상업","building_use":"판매","latitude":37.5673948037,"longitude":127.0131184919},{"address":"고덕로 693","price":"68,000","contract_date":"202409-202409-25","area":39.46,"land_use":"제2종일반주거","building_use":"제2종근린생활","latitude":37.8042305491,"longitude":127.081695151},{"address":"보문로 1**","price":"900,000","contract_date":"202409-202409-24","area":1867.6,"land_use":"제3종일반주거","building_use":"업무","latitude":36.3144576104,"longitude":127.4387200415},{"address":"성대로6길 256-9","price":"15,000","contract_date":"202409-202409-25","area":25.28,"land_use":"제2종일반주거","building_use":"제2종근린생활","latitude":37.4987308809,"longitude":126.9315454604},{"address":"개포로 03월 13일","price":"22,000","contract_date":"202409-202409-21","area":34.39,"land_use":"일반상업","building_use":"업무","latitude":34.3171417933,"longitude":126.7514350558},{"address":"용마산로62길 1499","price":"3,400","contract_date":"202409-202409-21","area":25.2,"land_use":"제2종일반주거","building_use":"제2종근린생활","latitude":37.5781156583,"longitude":127.0946972896},{"address":"퇴계로 01월 24일","price":"29,900","contract_date":"202409-202409-23","area":19.61,"land_use":"중심상업","building_use":"숙박","latitude":36.5636412484,"longitude":128.7258762089},{"address":"성북로 9*","price":"33,400","contract_date":"202409-202409-23","area":89.79,"land_use":"제1종일반주거","building_use":"제2종근린생활","latitude":35.1348971807,"longitude":129.0498894817},{"address":"퇴계로 110-7","price":"100,000","contract_date":"202409-202409-23","area":105.42,"land_use":"일반상업","building_use":"기타","latitude":37.5603805433,"longitude":126.9840663315},{"address":"이화여대1길 145","price":"2,000","contract_date":"202409-202409-23","area":3.8,"land_use":"일반상업","building_use":"판매","latitude":37.5572958798,"longitude":126.9431737528},{"address":"칠패로 151","price":"49,000","contract_date":"202409-202409-25","area":63.38,"land_use":"일반상업","building_use":"제2종근린생활","latitude":37.5595662547,"longitude":126.9740251188},{"address":"고척로40길 269-1","price":"4,000","contract_date":"202409-202409-21","area":9.7,"land_use":"제2종일반주거","building_use":"판매","latitude":37.5017526596,"longitude":126.8509325256},{"address":"양산로 293-1","price":"2,100","contract_date":"202409-202409-20","area":10.25,"land_use":"제3종일반주거","building_use":"제1종근린생활","latitude":37.1941204963,"longitude":127.0157200178},{"address":"양화로 166-14","price":"1,690","contract_date":"202409-202409-23","area":4.6,"land_use":"근린상업","building_use":"판매","latitude":37.2378173515,"longitude":127.5581774272},{"address":"광나루로56길 546-4","price":"169,000","contract_date":"202409-202409-24","area":298.74,"land_use":"준주거","building_use":"업무","latitude":37.5367969303,"longitude":127.0950622622},{"address":"신도림로11다길 2**","price":"155,000","contract_date":"202409-202409-25","area":228.02,"land_use":"준공업","building_use":"제2종근린생활","latitude":37.5090807265,"longitude":126.8784190348},{"address":"창경궁로 1**","price":"460,000","contract_date":"202409-202409-20","area":486.71,"land_use":"제2종일반주거","building_use":"제2종근린생활","latitude":37.5625313129,"longitude":126.9986651621},{"address":"마포대로 Jan-51","price":"39,500","contract_date":"202409-202409-26","area":92.41,"land_use":"일반상업","building_use":"업무","latitude":37.5446784586,"longitude":126.9519681907},{"address":"성미산로23안길 2**","price":"235,000","contract_date":"202409-202409-24","area":194.17,"land_use":"제2종일반주거","building_use":"제2종근린생활","latitude":37.5654314201,"longitude":126.9206642466},{"address":"용마산로62길 1499","price":"3,400","contract_date":"202409-202409-21","area":25.2,"land_use":"제2종일반주거","building_use":"제1종근린생활","latitude":37.5781156583,"longitude":127.0946972896},{"address":"역삼로9길 7**","price":"226,000","contract_date":"202409-202409-22","area":163.51,"land_use":"제2종일반주거","building_use":"제2종근린생활","latitude":37.4946394743,"longitude":127.0336433669},{"address":"동일로36길 349-4","price":"18,000","contract_date":"202409-202409-21","area":36.04,"land_use":"제3종일반주거","building_use":"제2종근린생활","latitude":37.5511937046,"longitude":127.0702272448},{"address":"퇴계로 01월 24일","price":"38,200","contract_date":"202409-202409-23","area":25.11,"land_use":"중심상업","building_use":"숙박","latitude":36.5636412484,"longitude":128.7258762089},{"address":"수표로6길 5*","price":"420,000","contract_date":"202409-202409-22","area":237.21,"land_use":"일반상업","building_use":"제1종근린생활","latitude":37.5629342622,"longitude":126.9907080538},{"address":"북악산로 74-226","price":"2,000","contract_date":"202409-202409-24","area":8.84,"land_use":"제2종일반주거","building_use":"제1종근린생활","latitude":37.5951743402,"longitude":126.9701948322},{"address":"양화로 166-14","price":"1,690","contract_date":"202409-202409-23","area":4.6,"land_use":"근린상업","building_use":"판매","latitude":37.2378173515,"longitude":127.5581774272},{"address":"영등포로3길 Jan-38","price":"52,000","contract_date":"202409-202409-20","area":139.9,"land_use":"준공업","building_use":"기타","latitude":37.5246640575,"longitude":126.8834635953},{"address":"성북로 9*","price":"35,000","contract_date":"202409-202409-22","area":89.79,"land_use":"제1종일반주거","building_use":"제2종근린생활","latitude":35.1348971807,"longitude":129.0498894817},{"address":"도봉로 595","price":"10,500","contract_date":"202409-202409-24","area":24.54,"land_use":"제2종일반주거","building_use":"제1종근린생활","latitude":37.6580877518,"longitude":127.0397930713},{"address":"망우로 101","price":"66,000","contract_date":"202409-202409-20","area":214.5,"land_use":"근린상업","building_use":"기타","latitude":37.5909847901,"longitude":127.0644371722},{"address":"월계로 635-4","price":"6,400","contract_date":"202409-202409-24","area":19.81,"land_use":"제3종일반주거","building_use":"업무","latitude":35.2138401022,"longitude":126.8512682376},{"address":"도봉로 731-19","price":"136,800","contract_date":"202409-202409-20","area":57.52,"land_use":"준주거","building_use":"제2종근린생활","latitude":37.6694477301,"longitude":127.0438742764},{"address":"논현로119길 153-6","price":"42,000","contract_date":"202409-202409-24","area":118.35,"land_use":"제1종일반주거","building_use":"제2종근린생활","latitude":37.5081343969,"longitude":127.0291410662},{"address":"종로 Feb-48","price":"5,100","contract_date":"202409-202409-22","area":5.46,"land_use":"일반상업","building_use":"판매","latitude":37.5990812081,"longitude":126.9667805882},{"address":"이촌로 300-27","price":"8,500","contract_date":"202409-202409-20","area":8.72,"land_use":"제3종일반주거","building_use":"제1종근린생활","latitude":37.5178969174,"longitude":126.9800195263},{"address":"망우로 101","price":"123,900","contract_date":"202409-202409-20","area":396.24,"land_use":"근린상업","building_use":"기타","latitude":37.5909847901,"longitude":127.0644371722},{"address":"여의대방로 44-35","price":"14,350","contract_date":"202409-202409-20","area":31.49,"land_use":"일반상업","building_use":"제2종근린생활","latitude":37.496182356,"longitude":126.9107299249},{"address":"퇴계로20길 1*","price":"425,000","contract_date":"202409-202409-20","area":395.92,"land_use":"제2종일반주거","building_use":"제2종근린생활","latitude":37.5601521428,"longitude":126.9860367206},{"address":"월드컵북로 1601","price":"226,831","contract_date":"202409-202409-19","area":460.97,"land_use":"일반상업","building_use":"교육연구","latitude":37.5857707425,"longitude":126.8781531838},{"address":"퇴계로 01월 24일","price":"42,700","contract_date":"202409-202409-23","area":28.14,"land_use":"중심상업","building_use":"숙박","latitude":36.5636412484,"longitude":128.7258762089},{"address":"영등포로3길 Jan-38","price":"20,000","contract_date":"202409-202409-20","area":44.64,"land_use":"준공업","building_use":"기타","latitude":37.5246640575,"longitude":126.8834635953},{"address":"어울마당로 1**","price":"663,073","contract_date":"202409-202409-20","area":286.8,"land_use":"제3종일반주거","building_use":"제1종근린생활","latitude":37.5455727906,"longitude":126.9189261111},{"address":"마곡동로4길 797-12","price":"18,000","contract_date":"202409-202409-25","area":31.59,"land_use":"일반상업","building_use":"숙박","latitude":37.559671443,"longitude":126.8362270518},{"address":"망우로 101","price":"71,300","contract_date":"202409-202409-20","area":223.08,"land_use":"근린상업","building_use":"기타","latitude":37.5909847901,"longitude":127.0644371722},{"address":"월드컵북로 1601","price":"116,251","contract_date":"202409-202409-19","area":236.64,"land_use":"일반상업","building_use":"교육연구","latitude":37.5857707425,"longitude":126.8781531838},{"address":"용답중앙21길 1*","price":"213,500","contract_date":"202409-202409-23","area":212.36,"land_use":"제2종일반주거","building_use":"제2종근린생활","latitude":37.5632891999,"longitude":127.0536496725},{"address":"가락로 121","price":"25,000","contract_date":"202409-202409-20","area":17.85,"land_use":"제3종일반주거","building_use":"제1종근린생활","latitude":37.5018807306,"longitude":127.1093998164},{"address":"영중로 7","price":"7,361","contract_date":"202409-202409-23","area":4.96,"land_use":"일반상업","building_use":"판매","latitude":37.5170929024,"longitude":126.9061649997},{"address":"청계천로 217-92","price":"26,000","contract_date":"202409-202409-20","area":3251.81,"land_use":"일반상업","building_use":"제1종근린생활","latitude":37.5720105914,"longitude":127.0238907948},{"address":"망우로 101","price":"68,500","contract_date":"202409-202409-20","area":223.08,"land_use":"근린상업","building_use":"기타","latitude":37.5909847901,"longitude":127.0644371722},{"address":"동남로4길 3*","price":"310,000","contract_date":"202409-202409-19","area":442.01,"land_use":"제2종일반주거","building_use":"제2종근린생활","latitude":37.4895587239,"longitude":127.1235978799},{"address":"월드컵북로 1601","price":"45,295","contract_date":"202409-202409-19","area":100.2,"land_use":"일반상업","building_use":"교육연구","latitude":37.5857707425,"longitude":126.8781531838},{"address":"후암로 1**","price":"110,000","contract_date":"202409-202409-20","area":43.43,"land_use":"제2종일반주거","building_use":"제1종근린생활","latitude":37.5460525204,"longitude":126.9782788105},{"address":"선릉로130길 07월 03일","price":"56,000","contract_date":"202409-202409-24","area":22.5,"land_use":"제3종일반주거","building_use":"제1종근린생활","latitude":37.5167314381,"longitude":127.0420646591},{"address":"고덕로 Feb-46","price":"550,000","contract_date":"202409-202409-20","area":267.16,"land_use":"일반상업","building_use":"제2종근린생활","latitude":37.5551632117,"longitude":127.1279259249},{"address":"올림픽로4길 85","price":"69,700","contract_date":"202409-202409-21","area":9.42,"land_use":"제3종일반주거","building_use":"제1종근린생활","latitude":37.5052032825,"longitude":127.0763004335},{"address":"망우로 101","price":"115,400","contract_date":"202409-202409-20","area":396.24,"land_use":"근린상업","building_use":"기타","latitude":37.5909847901,"longitude":127.0644371722},{"address":"목동동로 3**","price":"1,689,620","contract_date":"202409-202409-19","area":795.51,"land_use":"일반상업","building_use":"제1종근린생활","latitude":37.5140876464,"longitude":126.8560523895},{"address":"청파로71가길 01월 03일","price":"36,000","contract_date":"202409-202409-21","area":30.0,"land_use":"제2종일반주거","building_use":"제2종근린생활","latitude":37.549790806,"longitude":126.9679969822},{"address":"마곡동로4길 797-12","price":"13,000","contract_date":"202409-202409-23","area":19.19,"land_use":"일반상업","building_use":"숙박","latitude":37.559671443,"longitude":126.8362270518},{"address":"화곡로 980-21","price":"46,900","contract_date":"202409-202409-20","area":54.82,"land_use":"제2종일반주거","building_use":"제1종근린생활","latitude":37.0732585463,"longitude":126.8168612148},{"address":"율곡로2길 85","price":"31,300","contract_date":"202409-202409-20","area":36.86,"land_use":"일반상업","building_use":"숙박","latitude":37.5743654556,"longitude":126.9805106844},{"address":"자하문로1길 *","price":"21,000","contract_date":"202409-202409-14","area":39.66,"land_use":"제3종일반주거","building_use":"제1종근린생활","latitude":37.5764151016,"longitude":126.969692185},{"address":"망우로 101","price":"81,000","contract_date":"202409-202409-20","area":247.5,"land_use":"근린상업","building_use":"기타","latitude":37.5909847901,"longitude":127.0644371722},{"address":"월드컵북로 1601","price":"104,909","contract_date":"202409-202409-19","area":213.21,"land_use":"일반상업","building_use":"교육연구","latitude":37.5857707425,"longitude":126.8781531838},{"address":"공항대로 801-1","price":"22,000","contract_date":"202409-202409-23","area":40.4,"land_use":"일반상업","building_use":"업무","latitude":37.5467784001,"longitude":126.8777730494},{"address":"뚝섬로56가길 670","price":"22,000","contract_date":"202409-202409-14","area":34.12,"land_use":"제3종일반주거","building_use":"제2종근린생활","latitude":37.5285814047,"longitude":127.0847145217},{"address":"망우로 101","price":"72,200","contract_date":"202409-202409-20","area":221.65,"land_use":"근린상업","building_use":"기타","latitude":37.5909847901,"longitude":127.0644371722},{"address":"신반포로 1141","price":"8,500","contract_date":"202409-202409-21","area":6.61,"land_use":"제3종일반주거","building_use":"판매","latitude":37.5107074544,"longitude":127.0207998571},{"address":"학동로33길 7*","price":"990,000","contract_date":"202409-202409-13","area":710.52,"land_use":"제2종일반주거","building_use":"제2종근린생활","latitude":37.5152280149,"longitude":127.0325402312},{"address":"목동서로 9**","price":"2,215,430","contract_date":"202409-202409-19","area":631.97,"land_use":"일반상업","building_use":"제2종근린생활","latitude":37.5381055089,"longitude":126.8846351733},{"address":"공항대로61길 271-9","price":"24,600","contract_date":"202409-202409-20","area":60.72,"land_use":"준공업","building_use":"제2종근린생활","latitude":37.5536548127,"longitude":126.8675377392},{"address":"양산로 293-1","price":"2,100","contract_date":"202409-202409-20","area":12.19,"land_use":"제3종일반주거","building_use":"제1종근린생활","latitude":37.1941204963,"longitude":127.0157200178},{"address":"영등포로3길 Jan-38","price":"21,000","contract_date":"202409-202409-20","area":48.27,"land_use":"준공업","building_use":"기타","latitude":37.5246640575,"longitude":126.8834635953},{"address":"월드컵북로 1601","price":"22,683","contract_date":"202409-202409-19","area":50.1,"land_use":"일반상업","building_use":"교육연구","latitude":37.5857707425,"longitude":126.8781531838},{"address":"삼성로 511","price":"269,000","contract_date":"202409-202409-13","area":125.31,"land_use":"제3종일반주거","building_use":"교육연구","latitude":37.5076641367,"longitude":127.0555778205},{"address":"위례순환로 904-2","price":"46,200","contract_date":"202409-202409-19","area":94.57,"land_use":"준주거","building_use":"제1종근린생활","latitude":37.4765199157,"longitude":127.1328698022},{"address":"양천로 Mar-75","price":"34,291","contract_date":"202409-202409-13","area":157.6,"land_use":"준공업","building_use":"제2종근린생활","latitude":37.5652329633,"longitude":126.8461117584},{"address":"망우로 101","price":"68,500","contract_date":"202409-202409-20","area":214.5,"land_use":"근린상업","building_use":"기타","latitude":37.5909847901,"longitude":127.0644371722},{"address":"월드컵북로 1601","price":"118,377","contract_date":"202409-202409-19","area":240.34,"land_use":"일반상업","building_use":"교육연구","latitude":37.5857707425,"longitude":126.8781531838},{"address":"헌릉로8길 378","price":"48,000","contract_date":"202409-202409-13","area":82.27,"land_use":"준주거","building_use":"제2종근린생활","latitude":37.4546797346,"longitude":127.0647706426},{"address":"이문로1길 6*","price":"45,000","contract_date":"202409-202409-19","area":42.19,"land_use":"제2종일반주거","building_use":"제1종근린생활","latitude":37.5889086928,"longitude":127.0534473931},{"address":"성북로4길 609-1","price":"2,150","contract_date":"202409-202409-20","area":15.0,"land_use":"제1종일반주거","building_use":"제2종근린생활","latitude":37.595253468,"longitude":127.0084625711},{"address":"한강대로77길 9*","price":"500,000","contract_date":"202409-202409-20","area":804.81,"land_use":"일반상업","building_use":"제1종근린생활","latitude":37.5421987773,"longitude":126.9721417893},{"address":"망우로 101","price":"77,700","contract_date":"202409-202409-20","area":247.5,"land_use":"근린상업","building_use":"기타","latitude":37.5909847901,"longitude":127.0644371722},{"address":"광평로10길 734","price":"33,500","contract_date":"202409-202409-14","area":5.86,"land_use":"제2종일반주거","building_use":"제1종근린생활","latitude":37.480770818,"longitude":127.0824078133},{"address":"월드컵북로 1601","price":"39,554","contract_date":"202409-202409-19","area":80.42,"land_use":"일반상업","building_use":"교육연구","latitude":37.5857707425,"longitude":126.8781531838},{"address":"구로중앙로 606-1","price":"30,000","contract_date":"202409-202409-19","area":26.81,"land_use":"준공업","building_use":"제1종근린생활","latitude":37.5063036102,"longitude":126.8754905341},{"address":"창경궁로1길 334","price":"35,000","contract_date":"202409-202409-13","area":36.02,"land_use":"일반상업","building_use":"숙박","latitude":37.5625175945,"longitude":126.9963344572},{"address":"디지털로 851","price":"130,000","contract_date":"202409-202409-20","area":234.72,"land_use":"준공업","building_use":"제2종근린생활","latitude":37.4896967762,"longitude":126.8956888191},{"address":"신정로7길 1285","price":"10,500","contract_date":"202409-202409-13","area":21.12,"land_use":"제3종일반주거","building_use":"제2종근린생활","latitude":37.5145165042,"longitude":126.8340579152},{"address":"목동중앙로3길 741-6","price":"9,500","contract_date":"202409-202409-14","area":30.62,"land_use":"제2종일반주거","building_use":"제2종근린생활","latitude":37.5394684975,"longitude":126.8672326029},{"address":"망우로 101","price":"72,100","contract_date":"202409-202409-20","area":247.5,"land_use":"근린상업","building_use":"기타","latitude":37.5909847901,"longitude":127.0644371722},{"address":"아차산로 07월 03일","price":"21,000","contract_date":"202409-202409-19","area":30.3,"land_use":"일반상업","building_use":"업무","latitude":37.5481160319,"longitude":127.0456227092},{"address":"장충단로 18-35","price":"700","contract_date":"202409-202409-13","area":3.77,"land_use":"일반상업","building_use":"판매","latitude":37.552632091,"longitude":126.9995432437},{"address":"고덕로20가길 455-9","price":"22,000","contract_date":"202409-202409-18","area":58.6,"land_use":"제2종일반주거","building_use":"제2종근린생활","latitude":37.5542115898,"longitude":127.137294922},{"address":"월드컵북로 1601","price":"80,808","contract_date":"202409-202409-19","area":164.09,"land_use":"일반상업","building_use":"교육연구","latitude":37.5857707425,"longitude":126.8781531838},{"address":"양천로 Mar-75","price":"131,160","contract_date":"202409-202409-13","area":149.4,"land_use":"준공업","building_use":"제1종근린생활","latitude":37.5652329633,"longitude":126.8461117584},{"address":"서초대로58길 1***","price":"1,100,000","contract_date":"202409-202409-19","area":639.07,"land_use":"제3종일반주거","building_use":"제2종근린생활","latitude":37.4945380034,"longitude":127.0179701653},{"address":"불광로 242-36","price":"10,000","contract_date":"202409-202409-18","area":10.5,"land_use":"제2종일반주거","building_use":"제1종근린생활","latitude":37.6246571014,"longitude":126.9290813495},{"address":"강남대로 1303-31","price":"550,000","contract_date":"202409-202409-23","area":217.58,"land_use":"일반상업","building_use":"제1종근린생활","latitude":37.5244293246,"longitude":127.0159158441},{"address":"망우로 101","price":"71,400","contract_date":"202409-202409-20","area":221.65,"land_use":"근린상업","building_use":"기타","latitude":37.5909847901,"longitude":127.0644371722},{"address":"가락로 121","price":"25,000","contract_date":"202409-202409-20","area":17.85,"land_use":"제3종일반주거","building_use":"제1종근린생활","latitude":37.5018807306,"longitude":127.1093998164},{"address":"금낭화로 829-5","price":"8,000","contract_date":"202409-202409-12","area":26.86,"land_use":"준주거","building_use":"업무","latitude":37.5760593681,"longitude":126.8118659668},{"address":"월드컵북로 1601","price":"49,690","contract_date":"202409-202409-19","area":101.04,"land_use":"일반상업","building_use":"교육연구","latitude":37.5857707425,"longitude":126.8781531838},{"address":"구로중앙로 606-1","price":"24,000","contract_date":"202409-202409-19","area":24.59,"land_use":"준공업","building_use":"제2종근린생활","latitude":37.5063036102,"longitude":126.8754905341},{"address":"양천로 Mar-75","price":"131,160","contract_date":"202409-202409-13","area":149.4,"land_use":"준공업","building_use":"제1종근린생활","latitude":37.5652329633,"longitude":126.8461117584},{"address":"여의대로 03월 28일","price":"38,022","contract_date":"202409-202409-12","area":45.66,"land_use":"일반상업","building_use":"제2종근린생활","latitude":37.5211741496,"longitude":126.9185543794},{"address":"용마산로62길 1499","price":"8,600","contract_date":"202409-202409-21","area":75.6,"land_use":"제2종일반주거","building_use":"제1종근린생활","latitude":37.5781156583,"longitude":127.0946972896},{"address":"월드컵북로 1601","price":"94,985","contract_date":"202409-202409-19","area":193.11,"land_use":"일반상업","building_use":"교육연구","latitude":37.5857707425,"longitude":126.8781531838},{"address":"경인로53길 1258","price":"13,400","contract_date":"202409-202409-12","area":24.13,"land_use":"준공업","building_use":"판매","latitude":37.5067829027,"longitude":126.8750338558},{"address":"월정로28가길 360-5","price":"16,000","contract_date":"202409-202409-14","area":37.78,"land_use":"제2종일반주거","building_use":"제2종근린생활","latitude":37.5319399373,"longitude":126.8375823248},{"address":"양천로 Mar-75","price":"104,296","contract_date":"202409-202409-13","area":51.6,"land_use":"준공업","building_use":"제2종근린생활","latitude":37.5652329633,"longitude":126.8461117584},{"address":"남부순환로 1***","price":"700,000","contract_date":"202409-202409-14","area":621.26,"land_use":"준주거","building_use":"제2종근린생활","latitude":34.5705877133,"longitude":126.6073264115},{"address":"강남대로102길 8**","price":"1,820,000","contract_date":"202409-202409-19","area":447.62,"land_use":"제2종일반주거","building_use":"제1종근린생활","latitude":37.5019428618,"longitude":127.0267307254},{"address":"강남대로 837-11","price":"5,000","contract_date":"202409-202409-19","area":42.33,"land_use":"일반상업","building_use":"제1종근린생활","latitude":37.5180817961,"longitude":127.0184980478},{"address":"망우로 101","price":"72,000","contract_date":"202409-202409-20","area":214.5,"land_use":"근린상업","building_use":"기타","latitude":37.5909847901,"longitude":127.0644371722},{"address":"여의대방로22길 724","price":"36,000","contract_date":"202409-202409-14","area":21.39,"land_use":"준주거","building_use":"제2종근린생활","latitude":37.4984055543,"longitude":126.9278726727},{"address":"공항대로 800-4","price":"23,000","contract_date":"202409-202409-12","area":40.4,"land_use":"일반상업","building_use":"업무","latitude":37.5467784001,"longitude":126.8777730494},{"address":"양녕로6라길 1515-8","price":"18,000","contract_date":"202409-202409-19","area":62.58,"land_use":"제2종일반주거","building_use":"제2종근린생활","latitude":37.4837843683,"longitude":126.9515476086},{"address":"가산디지털1로 470-5","price":"57,000","contract_date":"202409-202409-12","area":91.98,"land_use":"준공업","building_use":"제2종근린생활","latitude":37.4857766266,"longitude":126.8782844955},{"address":"공원로 108","price":"14,000","contract_date":"202409-202409-11","area":50.7,"land_use":"일반상업","building_use":"업무","latitude":36.9726809163,"longitude":129.4101299678},{"address":"강남대로 837-36","price":"45,000","contract_date":"202409-202409-13","area":45.68,"land_use":"일반상업","building_use":"업무","latitude":37.5180817961,"longitude":127.0184980478},{"address":"양천로 Mar-75","price":"159,605","contract_date":"202409-202409-13","area":51.6,"land_use":"준공업","building_use":"제1종근린생활","latitude":37.5652329633,"longitude":126.8461117584},{"address":"새말로 03월 25일","price":"1,900","contract_date":"202409-202409-20","area":10.29,"land_use":"일반상업","building_use":"판매","latitude":37.7479099879,"longitude":127.0647321747},{"address":"광평로19길 746","price":"3,000","contract_date":"202409-202409-19","area":498.9,"land_use":"제3종일반주거","building_use":"제1종근린생활","latitude":37.4838942296,"longitude":127.0858851191},{"address":"논현로163길 5**","price":"1,070,000","contract_date":"202409-202409-13","area":868.77,"land_use":"제2종일반주거","building_use":"제2종근린생활","latitude":37.5238429976,"longitude":127.027218566},{"address":"충무로 Jan-43","price":"26,200","contract_date":"202409-202409-14","area":16.61,"land_use":"일반상업","building_use":"숙박","latitude":36.3207488621,"longitude":127.4374438274},{"address":"양천로 Mar-75","price":"131,160","contract_date":"202409-202409-13","area":149.4,"land_use":"준공업","building_use":"제1종근린생활","latitude":37.5652329633,"longitude":126.8461117584},{"address":"경인로53길 1258","price":"13,200","contract_date":"202409-202409-13","area":22.23,"land_use":"준공업","building_use":"판매","latitude":37.5067829027,"longitude":126.8750338558},{"address":"여의대로 03월 28일","price":"71,363","contract_date":"202409-202409-12","area":77.08,"land_use":"일반상업","building_use":"제2종근린생활","latitude":37.5211741496,"longitude":126.9185543794},{"address":"보문로 3*","price":"190,000","contract_date":"202409-202409-19","area":372.54,"land_use":"제3종일반주거","building_use":"제2종근린생활","latitude":36.3149913504,"longitude":127.4402454364},{"address":"구의강변로 589-10","price":"18,500","contract_date":"202409-202409-14","area":25.3,"land_use":"준주거","building_use":"업무","latitude":37.5398762552,"longitude":127.0948764251},{"address":"시흥대로 984","price":"21,000","contract_date":"202409-202409-11","area":22.86,"land_use":"준공업","building_use":"제2종근린생활","latitude":37.4240564086,"longitude":126.7910248652},{"address":"수표로26길 1**","price":"542,000","contract_date":"202409-202409-12","area":727.71,"land_use":"일반상업","building_use":"숙박","latitude":37.5722745948,"longitude":126.9891766108},{"address":"퇴계로 1*","price":"3,803,894","contract_date":"202409-202409-12","area":5464.26,"land_use":"제3종일반주거","building_use":"숙박","latitude":37.8669590319,"longitude":127.7228204509},{"address":"양천로 Mar-75","price":"62,341","contract_date":"202409-202409-13","area":157.6,"land_use":"준공업","building_use":"제2종근린생활","latitude":37.5652329633,"longitude":126.8461117584},{"address":"청계천로 1","price":"117,500","contract_date":"202409-202409-13","area":175.57,"land_use":"일반상업","building_use":"판매","latitude":37.5695452384,"longitude":126.9780084815},{"address":"강남대로 837-36","price":"45,000","contract_date":"202409-202409-13","area":45.68,"land_use":"일반상업","building_use":"업무","latitude":37.5180817961,"longitude":127.0184980478},{"address":"광평로10길 734","price":"36,500","contract_date":"202409-202409-12","area":5.62,"land_use":"제2종일반주거","building_use":"제1종근린생활","latitude":37.480770818,"longitude":127.0824078133},{"address":"법원로9길 645-2","price":"36,427","contract_date":"202409-202409-13","area":62.11,"land_use":"일반상업","building_use":"제2종근린생활","latitude":37.4841204159,"longitude":127.11670302},{"address":"월드컵북로 1601","price":"22,683","contract_date":"202409-202409-19","area":50.1,"land_use":"일반상업","building_use":"교육연구","latitude":37.5857707425,"longitude":126.8781531838},{"address":"법원로 643-1","price":"182,000","contract_date":"202409-202409-11","area":144.22,"land_use":"일반상업","building_use":"업무","latitude":36.5995303493,"longitude":126.647730446},{"address":"양천로 Mar-75","price":"111,407","contract_date":"202409-202409-13","area":41.4,"land_use":"준공업","building_use":"제2종근린생활","latitude":37.5652329633,"longitude":126.8461117584},{"address":"화곡로 980-21","price":"62,200","contract_date":"202409-202409-12","area":89.74,"land_use":"제2종일반주거","building_use":"업무","latitude":37.0732585463,"longitude":126.8168612148},{"address":"퇴계로73길 199-17","price":"27,400","contract_date":"202409-202409-11","area":4.25,"land_use":"일반상업","building_use":"판매","latitude":37.5678928586,"longitude":127.013708408},{"address":"양화로12길 3**","price":"490,000","contract_date":"202409-202409-10","area":478.5,"land_use":"제2종일반주거","building_use":"제2종근린생활","latitude":37.5516240944,"longitude":126.9175439029},{"address":"양천로 Mar-75","price":"131,160","contract_date":"202409-202409-13","area":149.4,"land_use":"준공업","building_use":"제1종근린생활","latitude":37.5652329633,"longitude":126.8461117584},{"address":"봉우재로71길 572","price":"300","contract_date":"202409-202409-11","area":8.57,"land_use":"제3종일반주거","building_use":"판매","latitude":37.5973806518,"longitude":127.0949961473},{"address":"여의대로 03월 28일","price":"127,437","contract_date":"202409-202409-12","area":137.62,"land_use":"일반상업","building_use":"제2종근린생활","latitude":37.5211741496,"longitude":126.9185543794},{"address":"동일로 3**","price":"1,246,000","contract_date":"202409-202409-13","area":2821.69,"land_use":"제3종일반주거","building_use":"숙박","latitude":37.5357205991,"longitude":127.0599324102},{"address":"법원로 643-1","price":"107,400","contract_date":"202409-202409-11","area":84.84,"land_use":"일반상업","building_use":"업무","latitude":36.5995303493,"longitude":126.647730446},{"address":"공항대로 774-4","price":"56,500","contract_date":"202409-202409-11","area":98.4,"land_use":"일반상업","building_use":"제2종근린생활","latitude":37.5467784001,"longitude":126.8777730494},{"address":"월드컵로25길 517","price":"18,500","contract_date":"202409-202409-11","area":11.85,"land_use":"제2종일반주거","building_use":"판매","latitude":37.556386538,"longitude":126.896475922},{"address":"국제금융로 525","price":"125,706","contract_date":"202409-202409-10","area":55.36,"land_use":"일반상업","building_use":"제2종근린생활","latitude":37.5177097709,"longitude":126.9346093496},{"address":"곰달래로 425-22","price":"18,000","contract_date":"202409-202409-11","area":28.04,"land_use":"제3종일반주거","building_use":"제2종근린생활","latitude":37.5298010779,"longitude":126.8383014612},{"address":"양천로 Mar-75","price":"174,617","contract_date":"202409-202409-13","area":149.4,"land_use":"준공업","building_use":"제2종근린생활","latitude":37.5652329633,"longitude":126.8461117584},{"address":"국제금융로 525","price":"162,750","contract_date":"202409-202409-10","area":66.46,"land_use":"일반상업","building_use":"제2종근린생활","latitude":37.5177097709,"longitude":126.9346093496},{"address":"양천로 Mar-75","price":"131,160","contract_date":"202409-202409-13","area":149.4,"land_use":"준공업","building_use":"제1종근린생활","latitude":37.5652329633,"longitude":126.8461117584},{"address":"진관4로 13","price":"18,000","contract_date":"202409-202409-12","area":31.02,"land_use":"제2종일반주거","building_use":"제2종근린생활","latitude":37.6434494761,"longitude":126.9218098281},{"address":"강남대로58길 5**","price":"780,000","contract_date":"202409-202409-12","area":908.58,"land_use":"제2종일반주거","building_use":"제1종근린생활","latitude":37.4894726488,"longitude":127.032985737},{"address":"중대로 150","price":"45,000","contract_date":"202409-202409-10","area":11.98,"land_use":"제3종일반주거","building_use":"판매","latitude":37.4954979333,"longitude":127.1243815733},{"address":"공항대로 797-1","price":"35,000","contract_date":"202409-202409-12","area":49.71,"land_use":"일반상업","building_use":"업무","latitude":37.5467784001,"longitude":126.8777730494},{"address":"마장로35길 7**","price":"625,000","contract_date":"202409-202409-11","area":746.76,"land_use":"제3종일반주거","building_use":"제1종근린생활","latitude":37.5686580384,"longitude":127.0394500521},{"address":"국제금융로 525","price":"98,530","contract_date":"202409-202409-10","area":48.81,"land_use":"일반상업","building_use":"제2종근린생활","latitude":37.5177097709,"longitude":126.9346093496},{"address":"양천로 Mar-75","price":"131,160","contract_date":"202409-202409-13","area":149.4,"land_use":"준공업","building_use":"제1종근린생활","latitude":37.5652329633,"longitude":126.8461117584},{"address":"강남대로 837-36","price":"45,000","contract_date":"202409-202409-13","area":45.68,"land_use":"일반상업","building_use":"업무","latitude":37.5180817961,"longitude":127.0184980478},{"address":"공항대로 800-4","price":"22,500","contract_date":"202409-202409-12","area":37.37,"land_use":"일반상업","building_use":"업무","latitude":37.5467784001,"longitude":126.8777730494},{"address":"필동로 2*","price":"84,500","contract_date":"202409-202409-12","area":23.14,"land_use":"제2종일반주거","building_use":"제1종근린생활","latitude":37.5612715043,"longitude":126.9961673822},{"address":"국제금융로 525","price":"165,938","contract_date":"202409-202409-10","area":125.18,"land_use":"일반상업","building_use":"판매","latitude":37.5177097709,"longitude":126.9346093496},{"address":"양천로 Mar-75","price":"131,160","contract_date":"202409-202409-13","area":149.4,"land_use":"준공업","building_use":"제1종근린생활","latitude":37.5652329633,"longitude":126.8461117584},{"address":"시흥대로161길 1***","price":"120,000","contract_date":"202409-202409-11","area":1401.46,"land_use":"준공업","building_use":"제2종근린생활","latitude":37.4800505377,"longitude":126.8984976147},{"address":"돌곶이로 7*","price":"167,300","contract_date":"202409-202409-12","area":99.18,"land_use":"제2종일반주거","building_use":"제1종근린생활","latitude":37.605165298,"longitude":127.0618551453},{"address":"연세로5길 7*","price":"810,000","contract_date":"202409-202409-13","area":586.82,"land_use":"일반상업","building_use":"제1종근린생활","latitude":37.5572099758,"longitude":126.9365135549},{"address":"목동서로 923","price":"16,500","contract_date":"202409-202409-10","area":16.1,"land_use":"일반상업","building_use":"제2종근린생활","latitude":37.5152035207,"longitude":126.8591164486},{"address":"국제금융로 525","price":"114,168","contract_date":"202409-202409-10","area":50.28,"land_use":"일반상업","building_use":"제1종근린생활","latitude":37.5177097709,"longitude":126.9346093496},{"address":"동교로 3**","price":"400,000","contract_date":"202409-202409-10","area":898.56,"land_use":"제3종일반주거","building_use":"제2종근린생활","latitude":37.8410524905,"longitude":127.1330911015},{"address":"양천로 Mar-75","price":"131,160","contract_date":"202409-202409-13","area":149.4,"land_use":"준공업","building_use":"제1종근린생활","latitude":37.5652329633,"longitude":126.8461117584},{"address":"여의대로 03월 28일","price":"58,178","contract_date":"202409-202409-12","area":69.84,"land_use":"일반상업","building_use":"제2종근린생활","latitude":37.5211741496,"longitude":126.9185543794},{"address":"성암로15길 2-147","price":"30,000","contract_date":"202409-202409-12","area":44.47,"land_use":"제3종일반주거","building_use":"제2종근린생활","latitude":35.8242014261,"longitude":128.72433642},{"address":"상암로 1**","price":"4,400","contract_date":"202409-202409-13","area":925.59,"land_use":"제2종일반주거","building_use":"기타","latitude":34.7836924304,"longitude":127.6947168523},{"address":"동일로 649-1","price":"15,800","contract_date":"202409-202409-12","area":20.0,"land_use":"준주거","building_use":"판매","latitude":37.588396799,"longitude":127.0794375202},{"address":"국제금융로 525","price":"100,808","contract_date":"202409-202409-10","area":39.94,"land_use":"일반상업","building_use":"제1종근린생활","latitude":37.5177097709,"longitude":126.9346093496},{"address":"중앙로1길 Jan-75","price":"6,008","contract_date":"202409-202409-10","area":32.18,"land_use":"준공업","building_use":"업무","latitude":33.51575037,"longitude":126.5282460861},{"address":"공항대로 797-1","price":"35,000","contract_date":"202409-202409-12","area":51.47,"land_use":"일반상업","building_use":"업무","latitude":37.5467784001,"longitude":126.8777730494},{"address":"월드컵북로12길 1*","price":"205,000","contract_date":"202409-202409-12","area":175.87,"land_use":"제2종일반주거","building_use":"제2종근린생활","latitude":37.561453687,"longitude":126.9160112792},{"address":"양천로 Mar-75","price":"131,160","contract_date":"202409-202409-13","area":149.4,"land_use":"준공업","building_use":"제1종근린생활","latitude":37.5652329633,"longitude":126.8461117584},{"address":"여의대방로 44-35","price":"26,000","contract_date":"202409-202409-12","area":55.64,"land_use":"일반상업","building_use":"업무","latitude":37.496182356,"longitude":126.9107299249},{"address":"국제금융로 525","price":"121,606","contract_date":"202409-202409-10","area":49.65,"land_use":"일반상업","building_use":"제2종근린생활","latitude":37.5177097709,"longitude":126.9346093496},{"address":"위례성대로6길 143-1","price":"5,500","contract_date":"202409-202409-10","area":17.28,"land_use":"제2종일반주거","building_use":"제2종근린생활","latitude":37.5111469789,"longitude":127.1159710952},{"address":"종로 24","price":"67,000","contract_date":"202409-202409-10","area":49.34,"land_use":"일반상업","building_use":"판매","latitude":35.8679547124,"longitude":128.5920944322},{"address":"덕릉로52길 4**","price":"144,474","contract_date":"202409-202409-11","area":416.52,"land_use":"제3종일반주거","building_use":"제1종근린생활","latitude":37.6364762695,"longitude":127.036563704},{"address":"양천로 Mar-75","price":"148,543","contract_date":"202409-202409-13","area":149.4,"land_use":"준공업","building_use":"제1종근린생활","latitude":37.5652329633,"longitude":126.8461117584},{"address":"백제고분로 1**","price":"1,980,000","contract_date":"202409-202409-12","area":1621.48,"land_use":"제3종일반주거","building_use":"제2종근린생활","latitude":37.5192169042,"longitude":127.0765135485},{"address":"개포로 652","price":"67,500","contract_date":"202409-202409-12","area":8.35,"land_use":"제3종일반주거","building_use":"제1종근린생활","latitude":37.4949080595,"longitude":127.0840570266},{"address":"국제금융로 525","price":"34,614","contract_date":"202409-202409-10","area":32.68,"land_use":"일반상업","building_use":"제1종근린생활","latitude":37.5177097709,"longitude":126.9346093496},{"address":"경인로53길 1258","price":"48,000","contract_date":"202409-202409-12","area":81.53,"land_use":"준공업","building_use":"업무","latitude":37.5067829027,"longitude":126.8750338558},{"address":"중앙로1길 Jan-75","price":"7,490","contract_date":"202409-202409-10","area":38.8,"land_use":"준공업","building_use":"업무","latitude":33.51575037,"longitude":126.5282460861},{"address":"마곡중앙6로 797-9","price":"160,480","contract_date":"202409-202409-11","area":54.36,"land_use":"일반상업","building_use":"제2종근린생활","latitude":37.5601772728,"longitude":126.8376959661},{"address":"국제금융로 525","price":"86,232","contract_date":"202409-202409-10","area":69.91,"land_use":"일반상업","building_use":"업무","latitude":37.5177097709,"longitude":126.9346093496},{"address":"서초대로 1315","price":"19,000","contract_date":"202409-202409-11","area":11.74,"land_use":"제1종일반주거","building_use":"판매","latitude":37.4979193379,"longitude":127.026850916},{"address":"동일로22길 4*","price":"710,000","contract_date":"202409-202409-12","area":467.1,"land_use":"제2종일반주거","building_use":"제1종근린생활","latitude":37.542503464,"longitude":127.0652201111},{"address":"북촌로 2*","price":"150,000","contract_date":"202409-202409-10","area":71.18,"land_use":"제1종일반주거","building_use":"제2종근린생활","latitude":37.5772552638,"longitude":126.9861786558},{"address":"경인로53길 1258","price":"102,000","contract_date":"202409-202409-12","area":173.0,"land_use":"준공업","building_use":"업무","latitude":37.5067829027,"longitude":126.8750338558},{"address":"국제금융로 525","price":"80,084","contract_date":"202409-202409-10","area":64.95,"land_use":"일반상업","building_use":"판매","latitude":37.5177097709,"longitude":126.9346093496},{"address":"공항대로 800-4","price":"23,000","contract_date":"202409-202409-12","area":40.4,"land_use":"일반상업","building_use":"업무","latitude":37.5467784001,"longitude":126.8777730494},{"address":"목동서로 923","price":"13,000","contract_date":"202409-202409-10","area":16.36,"land_use":"일반상업","building_use":"제2종근린생활","latitude":37.5152035207,"longitude":126.8591164486},{"address":"연무장길 2**","price":"2,450,000","contract_date":"202409-202409-11","area":1106.93,"land_use":"준공업","building_use":"제2종근린생활","latitude":37.5440168019,"longitude":127.0498709272},{"address":"마른내로8길 3*","price":"70,000","contract_date":"202409-202409-12","area":33.06,"land_use":"일반상업","building_use":"제1종근린생활","latitude":37.5639861002,"longitude":126.9967003835},{"address":"국제금융로 525","price":"29,984","contract_date":"202409-202409-10","area":42.42,"land_use":"일반상업","building_use":"제2종근린생활","latitude":37.5177097709,"longitude":126.9346093496},{"address":"마곡중앙6로 797-9","price":"160,480","contract_date":"202409-202409-11","area":54.36,"land_use":"일반상업","building_use":"제2종근린생활","latitude":37.5601772728,"longitude":126.8376959661},{"address":"신촌역로 1**","price":"410,000","contract_date":"202409-202409-12","area":856.54,"land_use":"일반상업","building_use":"제2종근린생활","latitude":37.5571124955,"longitude":126.9431112057},{"address":"경인로53길 1258","price":"79,000","contract_date":"202409-202409-12","area":134.35,"land_use":"준공업","building_use":"업무","latitude":37.5067829027,"longitude":126.8750338558},{"address":"서빙고로91나길 3*","price":"455,986","contract_date":"202409-202409-10","area":303.93,"land_use":"제2종일반주거","building_use":"제2종근린생활","latitude":37.5220916913,"longitude":126.9985074415},{"address":"국제금융로 525","price":"181,120","contract_date":"202409-202409-10","area":151.76,"land_use":"일반상업","building_use":"업무","latitude":37.5177097709,"longitude":126.9346093496},{"address":"헌릉로570길 515","price":"60,000","contract_date":"202409-202409-12","area":31.92,"land_use":"준주거","building_use":"제1종근린생활","latitude":37.4631552054,"longitude":127.1034422224},{"address":"법원로 643-1","price":"226,000","contract_date":"202409-202409-11","area":172.72,"land_use":"일반상업","building_use":"업무","latitude":36.5995303493,"longitude":126.647730446},{"address":"우장산로 1104-14","price":"13,900","contract_date":"202409-202409-11","area":41.15,"land_use":"제3종일반주거","building_use":"제2종근린생활","latitude":37.552981655,"longitude":126.8500766181},{"address":"경인로53길 1258","price":"52,000","contract_date":"202409-202409-12","area":88.0,"land_use":"준공업","building_use":"업무","latitude":37.5067829027,"longitude":126.8750338558},{"address":"국제금융로 525","price":"107,184","contract_date":"202409-202409-10","area":53.12,"land_use":"일반상업","building_use":"제2종근린생활","latitude":37.5177097709,"longitude":126.9346093496},{"address":"방울내로9안길 468-21","price":"13,500","contract_date":"202409-202409-11","area":44.64,"land_use":"제2종일반주거","building_use":"제2종근린생활","latitude":37.5597744872,"longitude":126.8978248795},{"address":"국제금융로 525","price":"35,222","contract_date":"202409-202409-10","area":42.31,"land_use":"일반상업","building_use":"판매","latitude":37.5177097709,"longitude":126.9346093496},{"address":"오목로 992-1","price":"43,000","contract_date":"202409-202409-11","area":55.61,"land_use":"준주거","building_use":"업무","latitude":37.7490064304,"longitude":127.101136756},{"address":"국제금융로 525","price":"58,526","contract_date":"202409-202409-10","area":46.47,"land_use":"일반상업","building_use":"업무","latitude":37.5177097709,"longitude":126.9346093496},{"address":"여의대방로47나길 4**","price":"62,000","contract_date":"202409-202409-11","area":189.42,"land_use":"제2종일반주거","building_use":"제1종근린생활","latitude":37.5091441239,"longitude":126.9212922901},{"address":"강남대로58길 5**","price":"780,000","contract_date":"202409-202409-12","area":908.58,"land_use":"제2종일반주거","building_use":"제1종근린생활","latitude":37.4894726488,"longitude":127.032985737},{"address":"마곡중앙6로 797-9","price":"179,520","contract_date":"202409-202409-11","area":59.55,"land_use":"일반상업","building_use":"제2종근린생활","latitude":37.5601772728,"longitude":126.8376959661},{"address":"월드컵로25길 517","price":"18,500","contract_date":"202409-202409-11","area":11.85,"land_use":"제2종일반주거","building_use":"판매","latitude":37.556386538,"longitude":126.896475922},{"address":"법원로 643-1","price":"110,400","contract_date":"202409-202409-11","area":87.48,"land_use":"일반상업","building_use":"업무","latitude":36.5995303493,"longitude":126.647730446},{"address":"독산로77길 197-8","price":"19,000","contract_date":"202409-202409-11","area":47.96,"land_use":"제2종일반주거","building_use":"제2종근린생활","latitude":37.4703065507,"longitude":126.9004077292},{"address":"국제금융로 525","price":"61,106","contract_date":"202409-202409-10","area":26.05,"land_use":"일반상업","building_use":"제1종근린생활","latitude":37.5177097709,"longitude":126.9346093496},{"address":"선유로 2","price":"11,900","contract_date":"202409-202409-11","area":31.96,"land_use":"준공업","building_use":"제2종근린생활","latitude":37.5144756961,"longitude":126.8872274741},{"address":"법원로 643-1","price":"300,000","contract_date":"202409-202409-11","area":231.31,"land_use":"일반상업","building_use":"업무","latitude":36.5995303493,"longitude":126.647730446},{"address":"퇴계로 Sep-65","price":"12,000","contract_date":"202409-202409-11","area":5.1,"land_use":"중심상업","building_use":"판매","latitude":36.7396880308,"longitude":128.8334250764},{"address":"국제금융로 525","price":"45,166","contract_date":"202409-202409-10","area":54.28,"land_use":"일반상업","building_use":"제2종근린생활","latitude":37.5177097709,"longitude":126.9346093496},{"address":"선릉로 756-18","price":"140,000","contract_date":"202409-202409-11","area":24.17,"land_use":"제3종일반주거","building_use":"업무","latitude":37.5222448565,"longitude":127.0396712619},{"address":"매헌로 215","price":"3,200","contract_date":"202409-202409-10","area":9.0,"land_use":"일반상업","building_use":"판매","latitude":37.4696018445,"longitude":127.0383732847},{"address":"국제금융로 525","price":"131,550","contract_date":"202409-202409-10","area":53.73,"land_use":"일반상업","building_use":"제2종근린생활","latitude":37.5177097709,"longitude":126.9346093496},{"address":"중앙로1길 Jan-75","price":"1,455","contract_date":"202409-202409-10","area":7.59,"land_use":"준공업","building_use":"업무","latitude":33.51575037,"longitude":126.5282460861},{"address":"백범로 107-17","price":"5,000","contract_date":"202409-202409-10","area":12.13,"land_use":"일반상업","building_use":"업무","latitude":37.5475409987,"longitude":126.9432227597},{"address":"국제금융로 525","price":"46,532","contract_date":"202409-202409-10","area":45.04,"land_use":"일반상업","building_use":"제1종근린생활","latitude":37.5177097709,"longitude":126.9346093496},{"address":"화곡로68길 637","price":"64,000","contract_date":"202409-202409-10","area":84.7,"land_use":"준공업","building_use":"기타","latitude":37.5561254443,"longitude":126.8618258895},{"address":"중앙로1길 Jan-75","price":"5,641","contract_date":"202409-202409-10","area":29.44,"land_use":"준공업","building_use":"업무","latitude":33.51575037,"longitude":126.5282460861},{"address":"국제금융로 525","price":"85,474","contract_date":"202409-202409-10","area":44.57,"land_use":"일반상업","building_use":"제2종근린생활","latitude":37.5177097709,"longitude":126.9346093496},{"address":"시흥대로50길 9**","price":"208,000","contract_date":"202409-202409-10","area":379.6,"land_use":"제2종일반주거","building_use":"제2종근린생활","latitude":37.4514505395,"longitude":126.9025979575},{"address":"경동시장로12길 4**","price":"210,000","contract_date":"202409-202409-11","area":331.82,"land_use":"일반상업","building_use":"제1종근린생활","latitude":37.5820638504,"longitude":127.0408187332},{"address":"테헤란로19길 6**","price":"1,080,000","contract_date":"202409-202409-10","area":590.57,"land_use":"제2종일반주거","building_use":"제2종근린생활","latitude":37.5003959946,"longitude":127.0334551066},{"address":"마곡중앙6로 797-9","price":"179,520","contract_date":"202409-202409-11","area":59.55,"land_use":"일반상업","building_use":"제2종근린생활","latitude":37.5601772728,"longitude":126.8376959661},{"address":"중앙로1길 Jan-75","price":"1,417","contract_date":"202409-202409-10","area":7.59,"land_use":"준공업","building_use":"업무","latitude":33.51575037,"longitude":126.5282460861},{"address":"국제금융로 525","price":"108,094","contract_date":"202409-202409-10","area":42.84,"land_use":"일반상업","building_use":"제1종근린생활","latitude":37.5177097709,"longitude":126.9346093496},{"address":"신촌로 12-33","price":"14,900","contract_date":"202409-202409-10","area":31.68,"land_use":"일반상업","building_use":"업무","latitude":37.4601266727,"longitude":127.1059865667},{"address":"중앙로1길 Jan-75","price":"6,640","contract_date":"202409-202409-10","area":34.65,"land_use":"준공업","building_use":"업무","latitude":33.51575037,"longitude":126.5282460861},{"address":"국제금융로 525","price":"218,164","contract_date":"202409-202409-10","area":92.97,"land_use":"일반상업","building_use":"제1종근린생활","latitude":37.5177097709,"longitude":126.9346093496},{"address":"중앙로1길 Jan-75","price":"6,808","contract_date":"202409-202409-10","area":36.47,"land_use":"준공업","building_use":"업무","latitude":33.51575037,"longitude":126.5282460861},{"address":"국제금융로 525","price":"106,424","contract_date":"202409-202409-10","area":52.72,"land_use":"일반상업","building_use":"제1종근린생활","latitude":37.5177097709,"longitude":126.9346093496},{"address":"중앙로1길 Jan-75","price":"1,465","contract_date":"202409-202409-10","area":7.59,"land_use":"준공업","building_use":"업무","latitude":33.51575037,"longitude":126.5282460861},{"address":"올림픽로12길 2**","price":"400,000","contract_date":"202409-202409-10","area":326.97,"land_use":"제2종일반주거","building_use":"제2종근린생활","latitude":37.5112858536,"longitude":127.0827712665},{"address":"국제금융로 525","price":"316,922","contract_date":"202409-202409-10","area":349.06,"land_use":"일반상업","building_use":"판매","latitude":37.5177097709,"longitude":126.9346093496},{"address":"진관4로 11","price":"30,000","contract_date":"202409-202409-11","area":56.1,"land_use":"제2종전용주거","building_use":"제1종근린생활","latitude":37.6434494761,"longitude":126.9218098281},{"address":"국제금융로 525","price":"115,686","contract_date":"202409-202409-10","area":47.25,"land_use":"일반상업","building_use":"제2종근린생활","latitude":37.5177097709,"longitude":126.9346093496},{"address":"중랑천로 137-15","price":"13,000","contract_date":"202409-202409-10","area":35.64,"land_use":"제2종일반주거","building_use":"업무","latitude":37.5974392456,"longitude":127.0716899072},{"address":"국제금융로 525","price":"146,656","contract_date":"202409-202409-10","area":59.89,"land_use":"일반상업","building_use":"제2종근린생활","latitude":37.5177097709,"longitude":126.9346093496},{"address":"방배선행길 2525","price":"101,500","contract_date":"202409-202409-10","area":63.21,"land_use":"제2종일반주거","building_use":"판매","latitude":37.4714811879,"longitude":126.9874061191},{"address":"국제금융로 525","price":"93,976","contract_date":"202409-202409-10","area":76.21,"land_use":"일반상업","building_use":"판매","latitude":37.5177097709,"longitude":126.9346093496},{"address":"국제금융로 525","price":"94,204","contract_date":"202409-202409-10","area":71.1,"land_use":"일반상업","building_use":"판매","latitude":37.5177097709,"longitude":126.9346093496},{"address":"학동로21길 5*","price":"1,100,000","contract_date":"202409-202409-10","area":821.77,"land_use":"제3종일반주거","building_use":"제1종근린생활","latitude":37.5135920834,"longitude":127.0281344469},{"address":"양천로 1498","price":"130,000","contract_date":"202409-202409-10","area":72.67,"land_use":"준공업","building_use":"제1종근린생활","latitude":37.5485603716,"longitude":126.878255792},{"address":"국제금융로 525","price":"173,224","contract_date":"202409-202409-10","area":130.67,"land_use":"일반상업","building_use":"판매","latitude":37.5177097709,"longitude":126.9346093496},{"address":"국제금융로 525","price":"103,312","contract_date":"202409-202409-10","area":42.19,"land_use":"일반상업","building_use":"제2종근린생활","latitude":37.5177097709,"longitude":126.9346093496},{"address":"강서로 1165-1","price":"41,843","contract_date":"202409-202409-09","area":83.63,"land_use":"제3종일반주거","building_use":"제1종근린생활","latitude":36.6249700668,"longitude":127.4304126983},{"address":"국제금융로 525","price":"37,650","contract_date":"202409-202409-10","area":45.2,"land_use":"일반상업","building_use":"판매","latitude":37.5177097709,"longitude":126.9346093496},{"address":"중앙로1길 Jan-75","price":"4,697","contract_date":"202409-202409-10","area":25.16,"land_use":"준공업","building_use":"업무","latitude":33.51575037,"longitude":126.5282460861},{"address":"국제금융로 525","price":"129,956","contract_date":"202409-202409-10","area":57.22,"land_use":"일반상업","building_use":"제1종근린생활","latitude":37.5177097709,"longitude":126.9346093496},{"address":"국제금융로 525","price":"158,726","contract_date":"202409-202409-10","area":128.67,"land_use":"일반상업","building_use":"기타","latitude":37.5177097709,"longitude":126.9346093496},{"address":"고척로 161-62","price":"17,000","contract_date":"202409-202409-09","area":42.14,"land_use":"제2종일반주거","building_use":"제2종근린생활","latitude":37.5036490999,"longitude":126.8515120218},{"address":"논현로131길 3*","price":"1,510,000","contract_date":"202409-202409-10","area":981.51,"land_use":"제3종일반주거","building_use":"제1종근린생활","latitude":37.5146810853,"longitude":127.029941156},{"address":"국제금융로 525","price":"79,856","contract_date":"202409-202409-10","area":68.44,"land_use":"일반상업","building_use":"판매","latitude":37.5177097709,"longitude":126.9346093496},{"address":"국제금융로 525","price":"98,834","contract_date":"202409-202409-10","area":39.18,"land_use":"일반상업","building_use":"제1종근린생활","latitude":37.5177097709,"longitude":126.9346093496},{"address":"중앙로1길 Jan-75","price":"6,209","contract_date":"202409-202409-10","area":32.17,"land_use":"준공업","building_use":"업무","latitude":33.51575037,"longitude":126.5282460861},{"address":"강서로 1165-1","price":"41,843","contract_date":"202409-202409-09","area":83.63,"land_use":"제3종일반주거","building_use":"제1종근린생활","latitude":36.6249700668,"longitude":127.4304126983},{"address":"국제금융로 525","price":"29,074","contract_date":"202409-202409-10","area":41.07,"land_use":"일반상업","building_use":"제2종근린생활","latitude":37.5177097709,"longitude":126.9346093496},{"address":"중앙로1길 Jan-75","price":"4,858","contract_date":"202409-202409-10","area":25.16,"land_use":"준공업","building_use":"업무","latitude":33.51575037,"longitude":126.5282460861},{"address":"국제금융로 525","price":"117,128","contract_date":"202409-202409-10","area":51.58,"land_use":"일반상업","building_use":"제1종근린생활","latitude":37.5177097709,"longitude":126.9346093496},{"address":"국제금융로 525","price":"68,546","contract_date":"202409-202409-10","area":82.33,"land_use":"일반상업","building_use":"제2종근린생활","latitude":37.5177097709,"longitude":126.9346093496},{"address":"강서로 1165-1","price":"38,652","contract_date":"202409-202409-09","area":77.25,"land_use":"제3종일반주거","building_use":"제1종근린생활","latitude":36.6249700668,"longitude":127.4304126983},{"address":"효령로29길 9**","price":"280,000","contract_date":"202409-202409-10","area":251.25,"land_use":"제2종일반주거","building_use":"제2종근린생활","latitude":37.4819761465,"longitude":126.9953511761},{"address":"국제금융로 525","price":"150,452","contract_date":"202409-202409-10","area":66.25,"land_use":"일반상업","building_use":"제2종근린생활","latitude":37.5177097709,"longitude":126.9346093496},{"address":"중앙로1길 Jan-75","price":"7,244","contract_date":"202409-202409-10","area":38.8,"land_use":"준공업","building_use":"업무","latitude":33.51575037,"longitude":126.5282460861},{"address":"마들로 636-20","price":"125,000","contract_date":"202409-202409-06","area":303.36,"land_use":"제2종일반주거","building_use":"제2종근린생활","latitude":37.667247657,"longitude":127.0472522157},{"address":"국제금융로 525","price":"109,234","contract_date":"202409-202409-10","area":93.59,"land_use":"일반상업","building_use":"기타","latitude":37.5177097709,"longitude":126.9346093496},{"address":"중앙로1길 Jan-75","price":"6,945","contract_date":"202409-202409-10","area":36.24,"land_use":"준공업","building_use":"업무","latitude":33.51575037,"longitude":126.5282460861},{"address":"뚝섬로 231-1","price":"3,425","contract_date":"202409-202409-06","area":9.45,"land_use":"준공업","building_use":"판매","latitude":37.5430691148,"longitude":127.0417989411},{"address":"강서로 1165-1","price":"42,777","contract_date":"202409-202409-09","area":85.3,"land_use":"제3종일반주거","building_use":"제1종근린생활","latitude":36.6249700668,"longitude":127.4304126983},{"address":"국제금융로 525","price":"80,236","contract_date":"202409-202409-10","area":68.76,"land_use":"일반상업","building_use":"기타","latitude":37.5177097709,"longitude":126.9346093496},{"address":"중앙로1길 Jan-75","price":"7,696","contract_date":"202409-202409-10","area":41.22,"land_use":"준공업","building_use":"업무","latitude":33.51575037,"longitude":126.5282460861},{"address":"오리로 279-4","price":"80,000","contract_date":"202409-202409-10","area":33.8,"land_use":"준주거","building_use":"제1종근린생활","latitude":37.4095545886,"longitude":126.8833180941},{"address":"국제금융로 525","price":"30,970","contract_date":"202409-202409-10","area":32.97,"land_use":"일반상업","building_use":"제1종근린생활","latitude":37.5177097709,"longitude":126.9346093496},{"address":"회기로 2*","price":"68,000","contract_date":"202409-202409-06","area":60.12,"land_use":"제2종일반주거","building_use":"제2종근린생활","latitude":37.5914285291,"longitude":127.0368732549},{"address":"중앙로1길 Jan-75","price":"5,965","contract_date":"202409-202409-10","area":31.13,"land_use":"준공업","building_use":"업무","latitude":33.51575037,"longitude":126.5282460861},{"address":"국제금융로 525","price":"151,894","contract_date":"202409-202409-10","area":64.75,"land_use":"일반상업","building_use":"제1종근린생활","latitude":37.5177097709,"longitude":126.9346093496},{"address":"효창원로70길 *","price":"520,000","contract_date":"202409-202409-09","area":790.8,"land_use":"제2종일반주거","building_use":"제1종근린생활","latitude":37.5417712225,"longitude":126.9636180982},{"address":"중앙로1길 Jan-75","price":"7,490","contract_date":"202409-202409-10","area":38.8,"land_use":"준공업","building_use":"업무","latitude":33.51575037,"longitude":126.5282460861},{"address":"강서로 1165-1","price":"212,746","contract_date":"202409-202409-09","area":425.43,"land_use":"제3종일반주거","building_use":"제1종근린생활","latitude":36.6249700668,"longitude":127.4304126983},{"address":"국제금융로 525","price":"146,960","contract_date":"202409-202409-10","area":60.0,"land_use":"일반상업","building_use":"제1종근린생활","latitude":37.5177097709,"longitude":126.9346093496},{"address":"중앙로1길 Jan-75","price":"6,591","contract_date":"202409-202409-10","area":35.3,"land_use":"준공업","building_use":"업무","latitude":33.51575037,"longitude":126.5282460861},{"address":"희우정로5길 453-13","price":"40,361","contract_date":"202409-202409-10","area":33.75,"land_use":"제2종일반주거","building_use":"제2종근린생활","latitude":37.5501318016,"longitude":126.9049957797},{"address":"국제금융로 525","price":"45,546","contract_date":"202409-202409-10","area":42.92,"land_use":"일반상업","building_use":"제2종근린생활","latitude":37.5177097709,"longitude":126.9346093496},{"address":"국회대로 01월 17일","price":"55,000","contract_date":"202409-202409-10","area":51.2,"land_use":"일반상업","building_use":"업무","latitude":37.5269026033,"longitude":126.8350265947},{"address":"중앙로1길 Jan-75","price":"5,968","contract_date":"202409-202409-10","area":31.96,"land_use":"준공업","building_use":"업무","latitude":33.51575037,"longitude":126.5282460861},{"address":"국제금융로 525","price":"103,998","contract_date":"202409-202409-10","area":82.59,"land_use":"일반상업","building_use":"업무","latitude":37.5177097709,"longitude":126.9346093496},{"address":"사직로8길 74","price":"28,000","contract_date":"202409-202409-05","area":52.0,"land_use":"일반상업","building_use":"판매","latitude":37.5736028155,"longitude":126.975095717},{"address":"가마산로27길 107","price":"8,600","contract_date":"202409-202409-09","area":32.46,"land_use":"일반상업","building_use":"업무","latitude":37.4996682796,"longitude":126.888772973},{"address":"여의공원로 10월 02일","price":"1,880,000","contract_date":"202409-202409-06","area":1660.07,"land_use":"일반상업","building_use":"업무","latitude":37.5246279838,"longitude":126.9167602589},{"address":"중앙로1길 Jan-75","price":"7,490","contract_date":"202409-202409-10","area":38.8,"land_use":"준공업","building_use":"업무","latitude":33.51575037,"longitude":126.5282460861},{"address":"국제금융로 525","price":"122,974","contract_date":"202409-202409-10","area":99.69,"land_use":"일반상업","building_use":"기타","latitude":37.5177097709,"longitude":126.9346093496},{"address":"중앙로1길 Jan-75","price":"4,697","contract_date":"202409-202409-10","area":25.16,"land_use":"준공업","building_use":"업무","latitude":33.51575037,"longitude":126.5282460861},{"address":"종로 262-1","price":"65,000","contract_date":"202409-202409-05","area":7.47,"land_use":"일반상업","building_use":"판매","latitude":37.5709762929,"longitude":127.0069479536},{"address":"국제금융로 525","price":"69,532","contract_date":"202409-202409-10","area":56.39,"land_use":"일반상업","building_use":"판매","latitude":37.5177097709,"longitude":126.9346093496},{"address":"중앙로1길 Jan-75","price":"7,244","contract_date":"202409-202409-10","area":38.8,"land_use":"준공업","building_use":"업무","latitude":33.51575037,"longitude":126.5282460861},{"address":"디지털로9길 60-17","price":"450,000","contract_date":"202409-202409-06","area":366.18,"land_use":"준공업","building_use":"제2종근린생활","latitude":37.480012036,"longitude":126.885705411},{"address":"국제금융로 525","price":"84,488","contract_date":"202409-202409-10","area":67.08,"land_use":"일반상업","building_use":"업무","latitude":37.5177097709,"longitude":126.9346093496},{"address":"마들로1가길 18","price":"105,900","contract_date":"202409-202409-04","area":329.36,"land_use":"제3종일반주거","building_use":"제1종근린생활","latitude":37.6174788604,"longitude":127.0675538135},{"address":"강서로 1165-1","price":"64,156","contract_date":"202409-202409-09","area":128.24,"land_use":"제3종일반주거","building_use":"제1종근린생활","latitude":36.6249700668,"longitude":127.4304126983},{"address":"국제금융로 525","price":"206,776","contract_date":"202409-202409-10","area":205.28,"land_use":"일반상업","building_use":"제1종근린생활","latitude":37.5177097709,"longitude":126.9346093496},{"address":"중앙로1길 Jan-75","price":"5,753","contract_date":"202409-202409-10","area":29.8,"land_use":"준공업","building_use":"업무","latitude":33.51575037,"longitude":126.5282460861},{"address":"국제금융로 525","price":"75,682","contract_date":"202409-202409-10","area":60.09,"land_use":"일반상업","building_use":"제2종근린생활","latitude":37.5177097709,"longitude":126.9346093496},{"address":"중앙로1길 Jan-75","price":"7,020","contract_date":"202409-202409-10","area":36.36,"land_use":"준공업","building_use":"업무","latitude":33.51575037,"longitude":126.5282460861},{"address":"국제금융로 525","price":"120,848","contract_date":"202409-202409-10","area":53.21,"land_use":"일반상업","building_use":"제1종근린생활","latitude":37.5177097709,"longitude":126.9346093496},{"address":"만양로3길 218-7","price":"51,200","contract_date":"202409-202409-07","area":147.62,"land_use":"제2종일반주거","building_use":"제2종근린생활","latitude":37.5057281272,"longitude":126.9411243714},{"address":"국제금융로 525","price":"221,048","contract_date":"202409-202409-10","area":94.22,"land_use":"일반상업","building_use":"제2종근린생활","latitude":37.5177097709,"longitude":126.9346093496},{"address":"국제금융로 525","price":"75,074","contract_date":"202409-202409-10","area":32.0,"land_use":"일반상업","building_use":"제1종근린생활","latitude":37.5177097709,"longitude":126.9346093496},{"address":"강서로 1165-1","price":"26,213","contract_date":"202409-202409-09","area":52.4,"land_use":"제3종일반주거","building_use":"제1종근린생활","latitude":36.6249700668,"longitude":127.4304126983},{"address":"양천로57길 1479-4","price":"5,000","contract_date":"202409-202409-10","area":16.74,"land_use":"일반상업","building_use":"제2종근린생활","latitude":37.5650642247,"longitude":126.8516682847},{"address":"여의공원로 10월 02일","price":"1,250,000","contract_date":"202409-202409-06","area":1107.21,"land_use":"일반상업","building_use":"업무","latitude":37.5246279838,"longitude":126.9167602589},{"address":"시흥대로 984","price":"20,000","contract_date":"202409-202409-04","area":37.5,"land_use":"준공업","building_use":"판매","latitude":37.4240564086,"longitude":126.7910248652},{"address":"국제금융로 525","price":"148,024","contract_date":"202409-202409-10","area":68.16,"land_use":"일반상업","building_use":"제1종근린생활","latitude":37.5177097709,"longitude":126.9346093496},{"address":"국제금융로 525","price":"56,780","contract_date":"202409-202409-10","area":56.39,"land_use":"일반상업","building_use":"제1종근린생활","latitude":37.5177097709,"longitude":126.9346093496},{"address":"월드컵로29길 425-13","price":"27,500","contract_date":"202409-202409-10","area":69.72,"land_use":"제2종일반주거","building_use":"제2종근린생활","latitude":37.557532564,"longitude":126.9000613539},{"address":"효령로 1038","price":"16,000","contract_date":"202409-202409-05","area":5.64,"land_use":"제3종일반주거","building_use":"제1종근린생활","latitude":37.4891064048,"longitude":127.031204349},{"address":"강서로 1165-1","price":"20,701","contract_date":"202409-202409-09","area":41.37,"land_use":"제3종일반주거","building_use":"제1종근린생활","latitude":36.6249700668,"longitude":127.4304126983},{"address":"광평로56길 725","price":"19,500","contract_date":"202409-202409-09","area":39.79,"land_use":"일반상업","building_use":"업무","latitude":37.4868045157,"longitude":127.1040269469},{"address":"어울마당로 3**","price":"680,000","contract_date":"202409-202409-03","area":736.72,"land_use":"제2종일반주거","building_use":"제2종근린생활","latitude":37.5457067766,"longitude":126.9190109598},{"address":"관악로40길 1000","price":"27,000","contract_date":"202409-202409-10","area":46.62,"land_use":"제3종일반주거","building_use":"판매","latitude":37.4933142126,"longitude":126.9607902243},{"address":"학동로47길 1**","price":"780,000","contract_date":"202409-202409-06","area":425.21,"land_use":"제3종일반주거","building_use":"제2종근린생활","latitude":37.5168023544,"longitude":127.038779485},{"address":"개포로 03월 13일","price":"27,500","contract_date":"202409-202409-09","area":32.39,"land_use":"일반상업","building_use":"업무","latitude":34.3171417933,"longitude":126.7514350558},{"address":"국제금융로 525","price":"21,710","contract_date":"202409-202409-10","area":26.13,"land_use":"일반상업","building_use":"판매","latitude":37.5177097709,"longitude":126.9346093496},{"address":"국제금융로 525","price":"121,152","contract_date":"202409-202409-10","area":96.21,"land_use":"일반상업","building_use":"업무","latitude":37.5177097709,"longitude":126.9346093496},{"address":"개포로 186-16","price":"161,000","contract_date":"202409-202409-03","area":100.8,"land_use":"일반상업","building_use":"제1종근린생활","latitude":34.3203923825,"longitude":126.7481013109},{"address":"국제금융로 525","price":"104,756","contract_date":"202409-202409-10","area":83.19,"land_use":"일반상업","building_use":"업무","latitude":37.5177097709,"longitude":126.9346093496},{"address":"능동로 861","price":"86,243","contract_date":"202409-202409-09","area":34.84,"land_use":"준주거","building_use":"제2종근린생활","latitude":35.2052932215,"longitude":128.8107701378},{"address":"국제금융로 525","price":"195,846","contract_date":"202409-202409-10","area":194.41,"land_use":"일반상업","building_use":"제1종근린생활","latitude":37.5177097709,"longitude":126.9346093496},{"address":"시흥대로 1155","price":"105,000","contract_date":"202409-202409-05","area":222.05,"land_use":"준주거","building_use":"판매","latitude":37.4384993403,"longitude":126.7904407338},{"address":"광나루로56길 546-4","price":"4,000","contract_date":"202409-202409-09","area":10.26,"land_use":"준주거","building_use":"판매","latitude":37.5367969303,"longitude":127.0950622622},{"address":"여의공원로 10월 02일","price":"1,070,000","contract_date":"202409-202409-06","area":420.15,"land_use":"일반상업","building_use":"제2종근린생활","latitude":37.5246279838,"longitude":126.9167602589},{"address":"목동서로 923","price":"12,000","contract_date":"202409-202409-10","area":16.1,"land_use":"일반상업","building_use":"제2종근린생활","latitude":37.5152035207,"longitude":126.8591164486},{"address":"능동로 861","price":"86,776","contract_date":"202409-202409-09","area":36.91,"land_use":"준주거","building_use":"제2종근린생활","latitude":35.2052932215,"longitude":128.8107701378},{"address":"국제금융로 525","price":"82,666","contract_date":"202409-202409-10","area":35.23,"land_use":"일반상업","building_use":"제1종근린생활","latitude":37.5177097709,"longitude":126.9346093496},{"address":"시흥대로 984","price":"18,000","contract_date":"202409-202409-03","area":22.86,"land_use":"준공업","building_use":"제2종근린생활","latitude":37.4240564086,"longitude":126.7910248652},{"address":"삼성로 902","price":"41,500","contract_date":"202409-202409-04","area":42.79,"land_use":"제3종일반주거","building_use":"제1종근린생활","latitude":37.3409639598,"longitude":126.9344303276},{"address":"중앙로1길 Jan-75","price":"47,048","contract_date":"202409-202409-10","area":235.47,"land_use":"준공업","building_use":"업무","latitude":33.51575037,"longitude":126.5282460861},{"address":"국제금융로 525","price":"31,046","contract_date":"202409-202409-10","area":33.03,"land_use":"일반상업","building_use":"제1종근린생활","latitude":37.5177097709,"longitude":126.9346093496},{"address":"중앙로1길 Jan-75","price":"9,260","contract_date":"202409-202409-10","area":47.96,"land_use":"준공업","building_use":"업무","latitude":33.51575037,"longitude":126.5282460861},